nodeIdx,id,name,lat,lon,pantryTypeBinary,magnetScore,reliability,waitNorm,ratingNorm,povertyNorm,densityNorm,waitTimeMinutesAverage
0,clel2n5440006l00fj2wxwitb,Madison Avenue Crossroads Community,40.9237922,-74.1524135,1.0,0.0,0.5,1.4999997750000338e-07,0.0,0.1878,0.2849462365591398,0.0
1,629,Jewish Community Council (JCC) of Greater Coney Island,40.5726933,-74.0021478,0.0,0.0,0.5,6.499999025000147e-07,0.6666666666666666,0.3172,0.08602150537634409,5.0
2,cmi3i14tt1b7941fjbllc19e7,Food 4 Life Lakewood Grocery Giveaway,33.7051375,-84.3792953,1.0,0.0,0.5,1.149999827500026e-06,0.75,0.1611,0.04838709677419355,10.0
3,cmisz0iz102cuzxedcn6277kp,St. Benedict the Moor,40.8078858,-73.9169898,1.0,0.0,0.5,1.4999997750000338e-07,0.0,0.3337,0.5,0.0
4,cllqgd3gy001jmx0g2yfmnxt1,Lomax Temple,42.402909,-83.073264,1.0,0.0,0.5,3.6499994525000822e-06,0.6666666666666666,0.4018,0.053763440860215055,35.0
5,clh0tx406000alb0fl6yqdzch,Mulberry Baptist Church,35.2452348,-80.9341735,1.0,0.0,0.5,8.999998650000202e-07,0.9333333333333332,0.0966,0.021505376344086023,7.5
6,cly8uhutu01tr9lesezyiarpu,New York Avenue Presbyterian Church,38.8998368,-77.0312764,0.0,0.0,0.5,1.4999997750000338e-07,0.0,0.0834,0.24731182795698925,0.0
7,ckywjg0ej002604xj4czdsn56,Kitchen of Love,40.0813989,-75.1746935,1.0,0.0,0.5,4.649999302500105e-06,0.625,0.1267,0.05913978494623656,45.0
8,cmk51i98y012b2r29b8194o2u,Eager to Serve Inc,40.650852,-73.586227,1.0,0.0,0.5,1.4999997750000338e-07,0.0,0.0371,0.043010752688172046,0.0
9,cmier5ozl0f8l0kfom6shggph,Emanuel Evangelical Lutheran Church,40.4927549,-74.4459827,1.0,0.0,0.5,1.4999997750000338e-07,0.0,0.3383,0.22043010752688172,0.0
10,416,Henry Street Settlement - Good Companions Senior Center,40.7128444,-73.9827504,1.0,0.0,0.5,1.4999997750000338e-07,0.8888888888888901,0.2821,0.5752688172043011,0.0
11,clg4rf9q80000k00f4xvyddqd,Liberty Community Development Corp,39.3126768,-76.7474356,1.0,0.0,0.5,2.149999677500048e-06,0.0,0.1107,0.03225806451612903,20.0
12,clejysf120002md0f5vpfaj3o,"Jewish Family and Vocational Service of Middlesex County, NJ - Milltown",40.4184442,-74.512547,1.0,0.0,0.5,1.4999997750000338e-07,0.75,0.0754,0.0,0.0
13,295,Christian Pentecostal Church,40.6048581,-74.0922882,1.0,0.0,0.5,6.1499990775001386e-06,0.75,0.11,0.12903225806451613,60.0
14,ckymj4cpx1012693nzywitjzgd5,Penn Asian Evergreen Community Center,40.058769,-75.1397145,0.0,0.0,0.5,1.4999997750000338e-07,0.7999999999999999,0.2542,0.1774193548387097,0.0
15,ckyi91nfa005304vjetlbwq4f,ST. CECELIA FOOD PANTRY,40.574071,-74.322912,1.0,0.0,0.5,1.149999827500026e-06,0.9,0.0265,0.016129032258064516,10.0
16,cldmjsz9x0002mn0fw720wpao,St. Francis House,42.3524148,-71.0635366,0.0,0.0,0.5,2.499999625000056e-07,0.9333333333333332,0.2216,0.20967741935483872,1.0
17,clehp5baj0004jt0f0ies70gj,Park Ave. Community Church,39.8487969,-75.0238532,1.0,0.0,0.5,1.149999827500026e-06,0.8333333333333334,0.194,0.05913978494623656,10.0
18,clg8702st0000jn0fu4xfaq0h,St. Abraham Baptist Church,39.3105921,-76.6365556,1.0,0.0,0.5,1.4999997750000338e-07,0.6666666666666666,0.1952,0.41397849462365593,0.0
19,cmin74f1i0y5a0kfohsbk3d0c,SHIP - Samaritan Homeless Interim Program,40.5687545,-74.607103,1.0,0.0,0.5,1.4999997750000338e-07,0.0,0.0258,0.04838709677419355,0.0
20,ckxz77tuj001h04z6drcpf1ys,Salvation Army Bridgeton,39.4295073,-75.2364127,0.0,0.0,0.5,1.149999827500026e-06,0.8666666666666667,0.2139,0.11290322580645161,10.0
21,cky7tsrny282363jsssvx2oi6g,Saint Paul's Baptist Church,39.9639323,-75.1542779,1.0,0.0,0.5,1.4999997750000338e-07,0.0,0.3476,0.5483870967741935,0.0
22,1257,Project Hospitality @ South Beach Houses,40.5944701,-74.0785932,1.0,0.0,0.5,2.149999677500048e-06,0.75,0.1305,0.06989247311827956,20.0
23,clyxgbh1n0wngvlqfdjvbx338,"Grand Central Food Program, Madison Square Park (5th Ave. & 27th St.)",40.7417039,-73.9869375,0.0,0.0,0.5,1.4999997750000338e-07,1.0,0.1755,0.41397849462365593,0.0
24,cmjzbq91r01eav03nns4t7p59,Springs Community Food Pantry,41.021309,-72.156364,1.0,0.0,0.5,1.4999997750000338e-07,0.0,0.0289,0.0,0.0
25,cmhuw61mv0jott5ebjiq90mvd,Wallington Senior Activity Center,40.8523291,-74.1156304,0.0,0.0,0.5,1.4999997750000338e-07,0.0,0.0707,0.1989247311827957,0.0
26,cmhzcuume10e12oflymyc02hh,Good Neighbors Food Connection,27.9632794,-82.7469986,1.0,0.0,0.5,1.4999997750000338e-07,0.0,0.1837,0.03225806451612903,0.0
27,cllx9szhl044l164uiwm2cg34,"Eastern Interfaith Outreach, Food Pantry",39.33699,-76.39707,1.0,0.0,0.5,1.4999997750000338e-07,0.7333333333333334,0.1176,0.016129032258064516,0.0
28,cldm29k32000rla0faaxjn5ha,Greater Anointing Harvest Church,42.299958,-71.0851307,1.0,0.0,0.5,1.4999997750000338e-07,0.8333333333333334,0.1936,0.25806451612903225,0.0
29,cmdxgvgh3044hvwkqgscfoy4a,Faith Assembly Community Outreach,40.6906664,-73.8245671,1.0,0.0,0.5,3.149999527500071e-06,0.75,0.1052,0.13978494623655913,30.0
30,clydfhx3o00xy1sykpl0r09x3,YMCA Boston Mobile Pantry Dorchester,42.2846896,-71.0708819,1.0,0.0,0.5,6.499999025000147e-07,0.9047619047619033,0.2322,0.1774193548387097,5.0
31,ckykb6vit089804yw0u1504jf,Hatfield Church of the Brethren,40.271422,-75.284639,1.0,0.0,0.5,1.4999997750000338e-07,1.0,0.0145,0.005376344086021506,0.0
32,clvb6cpwn04axel1jzoqmlwtf,There's Hope for the Hungry @ Episcopal Church of St Peter & St Paul,33.9921928,-84.4294523,1.0,0.0,0.5,1.149999827500026e-06,0.6666666666666666,0.0081,0.005376344086021506,10.0
33,clr7zyl4009xyn7hjhdp8xhw8,"Results Kids Club, Inc",33.7176641,-84.2115347,1.0,0.0,0.5,4.649999302500105e-06,0.4444444444444433,0.2322,0.03763440860215054,45.0
34,clgpgkwsw000kmc0fbjytz23g,Hyde Park Seventh-day Adventist Church ,42.2578546,-71.1198231,1.0,0.0,0.5,1.149999827500026e-06,0.75,0.0907,0.053763440860215055,10.0
35,clg6eoqxa0000lf0fqja9kh2d,Gospel Assembly Church,39.2379352,-76.6047378,1.0,0.0,0.5,3.149999527500071e-06,0.6666666666666666,0.2058,0.11827956989247312,30.0
36,ckz6jiww1001604z6w4tss28s,Flatlands Reformed Church,40.623753,-73.936188,1.0,0.0,0.0,3.6499994525000822e-06,1.0,0.1192,0.21505376344086022,35.0
37,clg5rt2r9002ql20f16cg5gzy,Maryland Access Point (MAP),39.2908475,-76.6105378,0.0,0.0,0.5,1.649999752500037e-06,0.7999999999999999,0.1473,0.34946236559139787,15.0
38,clein5xly000ojn0folmptnjj,Christus Lutheran Church,39.9540426,-75.0939423,1.0,0.0,0.5,1.149999827500026e-06,0.7333333333333334,0.3801,0.1935483870967742,10.0
39,cmab9b44s0jqvvy0v7ikop5h4, New Beginnings Church of the Nazarene,40.5054475,-74.4035558,1.0,0.0,0.5,6.499999025000147e-07,0.5,0.0711,0.04838709677419355,5.0
40,cm37szjx605eifrslss5z5ioz,Morton Development Group ,42.42702,-82.9244458,1.0,0.0,0.5,1.4999997750000338e-07,0.9047619047619033,0.0821,0.010752688172043012,0.0
41,ckyzq90uj3118093o1dh5dp8fw8,Center for Urban Community Services,40.8010976,-73.9380946,0.0,0.0,0.5,1.4999997750000338e-07,0.0,0.3453,0.5860215053763441,0.0
42,669,Mesivtha of Staten Island,40.5274306,-74.2141716,1.0,0.0,0.5,1.649999752500037e-06,0.6666666666666666,0.1173,0.021505376344086023,15.0
43,cky24mnlj001p04tn5nxmb0za,MAP Holistic CDC (Mankind Against Poverty),39.9725544043368,-75.1614993322461,1.0,0.0,0.5,1.4999997750000338e-07,0.0,0.2755,0.7956989247311828,0.0
44,cmhalxbpr0dplyyfljan95e1w,Andrew and Walter Young Family,33.7044623,-84.4614966,1.0,0.0,0.5,3.149999527500071e-06,0.7333333333333334,0.3746,0.005376344086021506,30.0
45,1021,Sandra's Family Residence,40.852805,-73.88315,1.0,0.0,0.5,1.4999997750000338e-07,0.0,0.261,0.34408602150537637,0.0
46,446,"Grand Central Food Program, Staten Island Ferry Terminal",40.7011133,-74.012936,0.0,0.0,0.5,1.4999997750000338e-07,0.0,0.08,0.3064516129032258,0.0
47,cldrdream0000jn0fco97k80y,St. Monica  Parish,42.3290684,-71.0531657,1.0,0.0,0.5,2.149999677500048e-06,0.8888888888888901,0.2262,0.13978494623655913,20.0
48,clghunce90020mi0f006ystus,Lucille’s Pantry,38.9011769,-76.9117711,1.0,0.0,0.5,1.4999997750000338e-07,0.0,0.1338,0.10752688172043011,0.0
49,clloxhpsn000kqo0ica5q484u,Capuchin Soup Kitchen - Meldrum Street,42.3509961,-83.012682,0.0,0.0,0.5,1.4999997750000338e-07,1.0,0.1355,0.06451612903225806,0.0
50,ckxexc1ld04380413xv5kwqzv,Postmark Cafe Gowanus Community Fridge,40.671069,-73.9851953,0.0,0.0,0.5,1.4999997750000338e-07,0.0,0.0592,0.1774193548387097,0.0
51,cli6g48qg075zpi0gp6vrzruq,St. Luke AME Church,27.9673237,-82.4313808,1.0,0.0,0.5,2.149999677500048e-06,0.9629629629629634,0.3852,0.14516129032258066,20.0
52,clih9vtpj0bvuqm0he2vhq7ci,Food is Love at the Gathering Church,27.8125243,-82.6100333,0.0,0.0,0.5,1.4999997750000338e-07,1.0,0.038,0.005376344086021506,0.0
53,ckypgrzlo150603yyp5aorhw9e,Mantua Haverford Community Center/Mt. Vernon Manor CDC,39.9640638,-75.199565,1.0,0.0,0.5,1.149999827500026e-06,0.8333333333333334,0.4868,0.45161290322580644,10.0
54,cljoypdpe00r0s70hkzy5ejba,New Hope United Methodist Church,39.72492,-75.471931,1.0,0.0,0.5,4.499999325000101e-07,1.0,0.4714,0.07526881720430108,3.0
55,clj39nbfy03deqi0hakvqnx1x,"ST. JOHN THE BAPTIST CHURCH, SOCIETY OF ST. VINCENT DE PAUL",40.4888729,-74.439808,1.0,0.0,0.5,1.149999827500026e-06,0.6666666666666666,0.3383,0.21505376344086022,10.0
56,cmli3spuj01ivyjfsjbkpxwnl,Cris Ohio,40.0526322,-83.0600966,1.0,0.0,0.5,1.4999997750000338e-07,0.0,0.2115,0.005376344086021506,0.0
57,1487,Immaculate Conception Church,40.6239568,-74.084054,1.0,0.0,0.5,1.4999997750000338e-07,0.6666666666666666,0.3011,0.24193548387096775,0.0
58,cma71z32m01b2t60ung3wu1qf,Mission Life Church,39.3168273,-76.5983254,1.0,0.0,0.5,6.1499990775001386e-06,0.3333333333333333,0.3328,0.34408602150537637,60.0
59,cmfr3h8ml0d71wzfma6pgft7e,Food2Life @ Bethel OFW Baptist Church ,33.73616,-84.3091271,1.0,0.0,0.5,1.149999827500026e-06,0.75,0.1578,0.05913978494623656,10.0
60,cliwsxh3z0a3wqw0g4s18x94g,St. James AME Church,40.2669145,-74.5319343,1.0,0.0,0.5,1.649999752500037e-06,0.75,0.0138,0.010752688172043012,15.0
61,cliwux9sc0a1pmg0hamucj6d7,Grab & Go Dinner Ike Williams Recreation,40.2165473,-74.758566,0.0,0.0,0.5,1.4999997750000338e-07,0.0,0.2382,0.45161290322580644,0.0
62,cmjhadkk00baoy6ec6dkhqvie, New Kingdom Baptist Church,39.9877447,-75.1334362,1.0,0.0,0.5,1.4999997750000338e-07,0.0,0.2577,0.7419354838709677,0.0
63,ckykb6v6x054004ywhxj1pq22,West Philadelphia SDA,39.96303,-75.212627,1.0,0.0,0.5,1.4999997750000338e-07,0.0,0.2501,0.6666666666666666,0.0
64,ckxexc1mt07960413yf2tus8b,155th St Fridge @ Madison Sq Boys and Girls Club,40.8293433,-73.938375,0.0,0.0,0.5,3.149999527500071e-06,1.0,0.2923,0.44623655913978494,30.0
65,cliev6e9u05fcqm0hjyu100n0,St. Joseph's SVDP,27.96115,-82.4914771,1.0,0.0,0.5,1.4999997750000338e-07,0.0,0.1081,0.03763440860215054,0.0
66,182,"Campaign Against Hunger, World Harvest Deliverance Center - Mobile Food Pantry",40.6053543,-73.7514861,1.0,0.0,0.5,3.149999527500071e-06,0.7916666666666666,0.0936,0.10215053763440861,30.0
67,ckxexc1ni10540413j9kgaz5i,Ravenswood Community Fridge,40.7605726,-73.9388595,0.0,0.0,0.5,1.4999997750000338e-07,0.0,0.3141,0.20430107526881722,0.0
68,cm8oo2c3v0b5b0j0vrhfl4s21,RWJBarnabas Health Snap Assistance New Brunswick,40.4948553,-74.4515552,0.0,0.0,0.5,1.4999997750000338e-07,0.0,0.2116,0.22043010752688172,0.0
69,cljf90nxk01flwoza6hwuava5,Calvary-St. Augustine Episcopal Church,39.9677608536801,-75.2060225864038,1.0,0.0,0.5,6.499999025000147e-07,0.6666666666666666,0.3152,0.478494623655914,5.0
70,cmk6z9olm03nlx6ef5xf97kgu,City Relief Chelsea Park,40.7498575,-74.0008431,0.0,0.0,0.5,6.1499990775001386e-06,0.0,0.1249,0.3118279569892473,60.0
71,cli4y09e5029bvy02tgwrsz0b,Our Lady of Guadalupe Food Pantry,27.7100105,-82.3344104,1.0,0.0,0.5,3.149999527500071e-06,0.88235294117647,0.3,0.005376344086021506,30.0
72,ckyng4qjo5173683t2dgxdp0hsq,Tabernacle Lutheran Church ,39.9565975,-75.2395654,1.0,0.0,0.5,1.4999997750000338e-07,0.6666666666666666,0.2543,0.6021505376344086,0.0
73,cmabc8uno012hx50wgjzwu9de, Seventh Day Adventist Church ,40.507307,-74.268165,1.0,0.0,0.5,6.499999025000147e-07,0.8888888888888901,0.1888,0.16666666666666666,5.0
74,cmh9fuzkp073p06fkdl39u2sv,Greater Bethel AME Church,33.6974819,-84.3993662,1.0,0.0,0.5,3.149999527500071e-06,0.8888888888888901,0.3782,0.03763440860215054,30.0
75,cmfpu2wot02jbyefl4d4frbd9,CWS/Church of God of Galilee,42.3171794,-71.0821384,1.0,0.0,0.5,1.149999827500026e-06,0.0,0.1928,0.44086021505376344,10.0
76,clh0wfl5k001cml0fy7q5xgd5,Creative Performing Arts Center of Philadelphia,40.0804153,-75.1719576,1.0,0.0,0.5,1.149999827500026e-06,0.8333333333333334,0.1267,0.06451612903225806,10.0
77,cllorlrkd00cgn10gq6mjsquw,Detroit Northwest Seven Day Adventist Church,42.391141,-83.247176,1.0,0.0,0.5,3.0499995425000686e-06,0.8333333333333334,0.2434,0.05913978494623656,29.0
78,cm58thd9201gg110vkpfktnss,St. John Baptist Church ,39.9514129,-75.0844757,1.0,0.0,0.5,1.4999997750000338e-07,0.6666666666666666,0.3256,0.1774193548387097,0.0
79,clhgn8qlf0008mu0fc5qsrsqx,Holy Family Soup Kitchen,39.9618141,-83.0167173,0.0,0.0,0.5,1.4999997750000338e-07,0.0,0.4492,0.15591397849462366,0.0
80,clq43tohl19fmwwmmnx4e6fay,Second Ebenezer,42.4165665,-83.0836009,1.0,0.0,0.5,3.149999527500071e-06,0.8333333333333334,0.2453,0.04838709677419355,30.0
81,cli4y167103f9vy02w18v6vhm,Countryside Christian Church,27.9874633,-82.7108554,1.0,0.0,0.5,6.1499990775001386e-06,0.8888888888888901,0.1979,0.043010752688172046,60.0
82,cldmp7kkj0056l80fbtbn7jbq,Open Pantry of Greater Lowell,42.6427266,-71.308231,1.0,0.0,0.5,1.4999997750000338e-07,0.0,0.1596,0.06989247311827956,0.0
83,cldoxdp9u0000jp0fnr6cq8qb,Interfaith Social Services,42.2563766,-71.0092425,1.0,0.0,0.5,1.649999752500037e-06,0.9230769230769234,0.0204,0.021505376344086023,15.0
84,cle64p44f013l2002zbqe5mre,Masjid Freehaven,39.8611422,-75.0230922,1.0,0.0,0.5,7.649998852500171e-06,0.9333333333333332,0.0925,0.05913978494623656,75.0
85,cldn93e8r0002kw0f24738a0q, New England Center  for Homeless Veterans,42.3590741,-71.0585102,0.0,0.0,0.5,1.149999827500026e-06,0.6666666666666666,0.1746,0.1827956989247312,10.0
86,ckypfzf3l137003yyp6wxjomih,First Church of Love and Deliverance,39.9896187,-75.1837672,1.0,0.0,0.5,6.1499990775001386e-06,0.9333333333333332,0.2897,0.6505376344086021,60.0
87,cle64pwl201nx200200rb7ony,True Vine Memorial Baptist Church,39.9537436,-74.5510198,1.0,0.0,0.5,1.649999752500037e-06,0.6666666666666666,0.065,0.010752688172043012,15.0
88,cmhtbfxxz0bgk2ofl6825zvhh,KAPPA DETROIT FOUNDATION DEVELOPMENT CENTER,42.365775,-83.0162896,1.0,0.0,0.5,1.4999997750000338e-07,0.0,0.3573,0.07526881720430108,0.0
89,cleelz2ez001blf0fdmna873u,Homefront,40.247674428178,-74.7439217004974,1.0,0.0,0.5,2.4999996250000563e-06,0.8333333333333334,0.042,0.05913978494623656,23.5
90,ckyfbrt9o185703nyd75ltn4mn,Congreso de Latinos Unidos,39.9928854,-75.1354291,0.0,0.0,0.5,1.4999997750000338e-07,0.0,0.4387,0.7580645161290323,0.0
91,cmc0uvzgq05kk4r0vvrh8sefa,Brooklyn Community Services Coney Island,40.5782173,-74.000492,1.0,0.125,0.5,1.4999997750000338e-07,0.7222222222222233,0.4577,0.10215053763440861,0.0
92,207,"Campaign Against Hunger, Coney Island - Mobile Food Pantry",40.5772508,-74.0000407,1.0,0.0,0.5,3.149999527500071e-06,1.0,0.4577,0.0967741935483871,30.0
93,cmbpdpj7m02xq1i0xy8ltjwlu,"B More Loyal, Inc. Community Fridge & Freezer",39.2993781,-76.6657601,0.0,0.0,0.5,3.149999527500071e-06,0.6666666666666666,0.1711,0.21505376344086022,30.0
94,cmhc1eyiv047lzjec906khmst,Vietnamese Elder Association South Atlanta,33.6182737,-84.3516539,1.0,0.0,0.5,1.4999997750000338e-07,0.75,0.1509,0.043010752688172046,0.0
95,cmhc3b0km04s7x5e9cb5277od,Families Advocating for Voices of Resilience,33.8011876,-84.22111,1.0,0.0,0.5,2.149999677500048e-06,0.7777777777777767,0.0025,0.04838709677419355,20.0
96,clhgny9eq0000l80fpqe2nw4q,Maternity Resource Center at Immanuel Baptist Church,39.9484879,-83.0909292,0.0,0.0,0.5,3.149999527500071e-06,0.6666666666666666,0.1647,0.08602150537634409,30.0
97,cm3d2c8p7007eiri4jtvnrf60,Multi-Service Community Center,40.7393862,-74.0363925,1.0,0.0,0.5,4.649999302500105e-06,0.6666666666666666,0.102,0.11827956989247312,45.0
98,clikketx8063alo0gr6o1x49n,Cathedral of Faith Church Inc (Kathedral Community Development Inc.),28.0042883,-82.4272414,1.0,0.0,0.5,3.6499994525000822e-06,0.0,0.2587,0.04838709677419355,35.0
99,clgc31u390018m90fbzasiceh,Mount Tabor Baptist,39.3073137,-76.5937523,1.0,0.0,0.5,1.4999997750000338e-07,0.0,0.3175,0.3225806451612903,0.0
100,cm59xl04s02k4110v19xjfhpm,Ujima Friends Peace Center,40.0111779,-75.0842378,1.0,0.0,0.5,1.149999827500026e-06,0.75,0.5608,0.2956989247311828,10.0
101,clh0v4o1x0000l20fb5d9iecv,Saint Paul Baptist Church Food Pantry,35.2304876,-80.8178386,1.0,0.0,0.5,6.499999025000147e-07,0.8333333333333334,0.2174,0.043010752688172046,5.0
102,cmbpmy6tv04m1x10ufm5pu9g4,APS Student and Family Support Hub,33.752502,-84.4072523,1.0,0.0,0.5,7.499998875000169e-07,1.0,0.0182,0.10215053763440861,6.0
103,cma45u5q40510vy0v6n3injtw,Elizabeth N.J. Train Station Bag Lunch Giveaway,40.6667779,-74.2157717,0.0,0.0,0.5,0.0005007499248875113,0.6666666666666666,0.1579,0.3172043010752688,5006.0
104,clydg1op001bd1sykjfrcab41,YMCA Boston Mobile @  Carver Lodge,42.2939664,-71.0837099,1.0,0.0,0.5,1.149999827500026e-06,0.7999999999999999,0.1936,0.23118279569892472,10.0
105,clekinjk30000ms0gel0hollp,Feed the Need,40.0937883731574,-74.2236318542615,1.0,0.0,0.5,1.4999997750000338e-07,0.8666666666666667,0.4132,0.10215053763440861,0.0
106,clj7hxnl000dts20hnyg0ylrl,Grace AME Zion Church - Food Pantry,35.337893,-80.794049,1.0,0.0,0.5,1.4999997750000338e-07,0.3333333333333333,0.0403,0.0,0.0
107,cm2awnvnn022a6crpr399y505,mRelief SNAP Screener - Detroit,42.3234333,-83.1716053,0.0,0.0,0.5,1.4999997750000338e-07,0.0,0.308,0.010752688172043012,0.0
108,clek5ryc20000js0fd7gnraxj,St Ann's Project Paul,40.447769914331,-74.1336783654271,1.0,0.0,0.5,8.999998650000202e-07,0.8888888888888901,0.1707,0.016129032258064516,7.5
109,clhgpl6st000mmi0fj32uivrv,Westside Food Pantry,39.9559149,-83.0937822,1.0,0.0,0.5,1.4999997750000338e-07,0.0,0.2521,0.07526881720430108,0.0
110,cleimlsu20002mh0fxesn3hdg,New Wesley African Methodist Episcopal Zion Church,39.9358676,-75.1159316,1.0,0.0,0.5,3.99999940000009e-07,0.7333333333333334,0.6121,0.34408602150537637,2.5
111,clu2u3pcp243g10j48w27v42q,First Mount Olive Free World Baptist Church,39.2188846,-76.6667188,1.0,0.0,0.5,1.4999997750000338e-07,0.7777777777777767,0.0399,0.005376344086021506,0.0
112,cldndctdo0000la0f3jy1ay9b,Roslindale Community Fridge,42.2885241,-71.1257851,0.0,0.0,0.5,6.499999025000147e-07,1.0,0.1266,0.05913978494623656,5.0
113,cmg88x2bt0249x9fncadkah9u,Bible Truth Ministries,27.9898825,-82.4350762,1.0,0.0,0.5,1.4999997750000338e-07,0.6666666666666666,0.2425,0.12365591397849462,0.0
114,cle82f4hk03180d02ivmcufpm,St. Anthony of Padua Catholic Church,38.8571225,-77.1386468,1.0,0.0,0.5,1.4999997750000338e-07,0.0,0.1199,0.06451612903225806,0.0
115,1321,City Harvest Mobile Market - The Stapleton,40.632816,-74.162819,1.0,0.0,0.5,3.899999415000088e-06,0.6666666666666666,0.2872,0.05913978494623656,37.5
116,cm9hj7tqe0049y20wr1qy7h5k,Arc XVI Ft. Washington Senior Center,40.8483916,-73.9321704,1.0,0.0,0.5,2.4149996377500545e-05,0.6666666666666666,0.1019,0.2903225806451613,240.0
117,cl4x5v0ag7068484fxfacatutpn,FOUNDATION FOR VETERANS HELPING VETERANS AND THEIR COMMUNITY,40.6752336,-73.915361,1.0,0.0,0.5,1.4999997750000338e-07,0.8888888888888901,0.2884,0.5913978494623656,0.0
118,cli4y1179038xvy02b0vng2uz,YMCA Trinity,28.1935057,-82.6747835,1.0,0.0,0.5,4.649999302500105e-06,0.71111111111111,0.062,0.005376344086021506,45.0
119,cle82f2lg02xe0d02t87nlfv2,Community Multi-Service,38.994991,-77.031759,1.0,0.0,0.5,1.4999997750000338e-07,0.0,0.0933,0.043010752688172046,0.0
120,clzu6rmik04mg76muegdu2qv7,St. John Neumann Catholic Church,39.1955712,-77.1862081,1.0,0.0,0.5,1.4999997750000338e-07,0.9696969696969701,0.0761,0.010752688172043012,0.0
121,clixfz0wa00hps40he25x3xjw,Tri-Arc Community Development Corporation,40.8944372,-74.0474337,1.0,0.0,0.5,1.4999997750000338e-07,1.0,0.0343,0.12365591397849462,0.0
122,clh1pyjhp0000l40fz7hqzlmj,Mallard Creek United House of Prayer Food Pantry,35.3537132,-80.7543084,1.0,0.0,0.5,1.4999997750000338e-07,0.0,0.0778,0.010752688172043012,0.0
123,cm5a3wu6a00vn2a0vbgtlrz6u,Emmanuel Baptist Church,38.8565353,-76.9718217,1.0,0.0,0.5,2.499999625000056e-07,0.8571428571428567,0.367,0.1935483870967742,1.0
124,clifv0bw7080eqm0hcv961kw7,Calvary Evangelical Lutheran Church,27.7134843,-82.4152065,1.0,0.0,0.5,2.6499996025000595e-06,0.8787878787878799,0.2471,0.010752688172043012,25.0
125,cmhm3f80t102d1geacxakf0a0,Jonesboro First UMC Food Co Op,33.5198724,-84.3547129,1.0,0.0,0.5,1.4999997750000338e-07,0.0,0.0921,0.026881720430107527,0.0
126,cl4nq9vm0048304xrvgkg3pbq,Playstreet 6100 Glenloch St.,40.0207840496814,-75.0579411699707,0.0,0.0,0.5,1.4999997750000338e-07,0.0,0.2339,0.1774193548387097,0.0
127,cli4y0dtl02fnvy0275ksnkbt,St. Mark MB,27.8612103,-82.5313278,1.0,0.0,0.5,8.999998650000202e-07,0.8333333333333334,0.0731,0.0,7.5
128,cldoqcuxd000emd0fxtqsbugl,Charles Street A.M.E. Church,42.3127561,-71.0838061,1.0,0.0,0.5,2.149999677500048e-06,0.8571428571428567,0.3044,0.3548387096774194,20.0
129,clekjvo1g000lmi0f4a9mf58a,Salvation Army Ocean County,39.9521523,-74.1490935,1.0,0.0,0.5,1.4999997750000338e-07,0.8888888888888901,0.06,0.010752688172043012,0.0
130,cle81k8520000l50fgov5ti9v,Raritan Food Pantry,40.5682481,-74.6326912,1.0,0.0,0.5,1.149999827500026e-06,0.8666666666666667,0.0875,0.010752688172043012,10.0
131,cl4nq9vm0048504xrtve4vxr1,Playstreet 7100 Vandike St.,40.0283198926319,-75.0371782737957,0.0,0.0,0.5,1.4999997750000338e-07,0.0,0.106,0.11290322580645161,0.0
132,clguddy1100ahyje1zehpptxn,NJ Reentry,40.7250285,-74.1044773,1.0,0.0,0.5,1.149999827500026e-06,0.7999999999999999,0.0865,0.03763440860215054,10.0
133,ckxz77tv1003d04z6bsbw6b0y,Little Falls Methodist Church,40.8837,-74.21604,1.0,0.0,0.5,6.499999025000147e-07,0.8787878787878799,0.007,0.021505376344086023,5.0
134,cldn311vr0000le0fzs9q3gfd,St. Vincent De Paul/ Our Lady of Lourdes,42.3135264,-71.1035846,1.0,0.0,0.5,1.8999997150000427e-06,0.75,0.1079,0.27419354838709675,17.5
135,ckypclr1p33013yypu7wafxb5,Young Chances Foundation,39.9333816,-75.1898654,1.0,0.0,0.5,1.8999997150000427e-06,1.0,0.2989,0.41935483870967744,17.5
136,ckxz77tx8009o04z6gw4sgb9z,Immaculate Heart of Mary Roman Catholic Church,40.6283256,-74.3577393,1.0,0.0,0.5,6.499999025000147e-07,0.8333333333333334,0.0285,0.005376344086021506,5.0
137,cl4nq9vm3050904xrefmltdsw,Playstreet 6300 Wheeler St.,39.9241709284028,-75.2294613119352,0.0,0.0,0.5,1.4999997750000338e-07,0.0,0.2612,0.3010752688172043,0.0
138,ckx0kqfa320133t1j7z5thuma,Saint John’s Episcopal Church  ,40.8839212,-74.5560087,1.0,0.0,0.5,1.149999827500026e-06,0.6666666666666666,0.1342,0.10752688172043011,10.0
139,cm7p6di6k01lj4r0wvhqe4ogl,Wholesome Riches @ Catto School,39.948561,-75.080136,1.0,0.0,0.5,2.499999625000056e-07,0.6666666666666666,0.3256,0.1827956989247312,1.0
140,cli4y1k2f03jrvy02o70mhfcu,St. Jerome Lifeline Ministry,27.87159,-82.8389659,1.0,0.0,0.5,1.4999997750000338e-07,0.7777777777777767,0.0623,0.005376344086021506,0.0
141,clip4y47k02i0mg0hfhqhrh4i,Wellfare - East Harlem Outpost,40.7978176,-73.9445796,1.0,0.0,0.5,1.4999997750000338e-07,0.8333333333333334,0.3104,0.5161290322580645,0.0
142,cle82exfw02m10d0216gxe68w,Christ the Redeemer Catholic Church,38.826829,-77.110273,0.0,0.0,0.5,1.4999997750000338e-07,0.0,0.0515,0.021505376344086023,0.0
143,cli4y0jug02m9vy02nbcgsr5w,Bautista Project Inc.,27.913608,-82.3729525,1.0,0.0,0.5,3.6499994525000822e-06,0.6666666666666666,0.2105,0.026881720430107527,35.0
144,clnnkgj2r014us50f1ncwn9m3,2 Fish 5 Loaves Fridge,40.7016563,-73.9444573,0.0,0.0,0.5,1.4999997750000338e-07,0.0,0.3991,0.553763440860215,0.0
145,369,"Good News Deliverance Tabernacle, Inc.",40.6738933,-73.8845055,1.0,0.0,0.5,3.149999527500071e-06,0.7777777777777767,0.1357,0.3655913978494624,30.0
146,clg7v59fg0000kx0ffva74wdu,Baltimore American Indian Center,39.2899741,-76.5932531,1.0,0.0,0.5,1.4999997750000338e-07,0.0,0.1628,0.27956989247311825,0.0
147,cleiwl9kg0046mg0f9qfty9q1,Hope Mobile – Paulsboro,39.8336897,-75.2424072,1.0,0.0,0.5,1.4999997750000338e-07,0.6666666666666666,0.0888,0.04838709677419355,0.0
148,cle9qzcl60000lb0firef7lyz,MUST Marietta Client Services,33.9852797,-84.5693718,1.0,0.0,0.5,1.4999997750000338e-06,0.8333333333333334,0.0872,0.0,13.5
149,ckyhdr031360083q18tqas06e6,Friends in Supplying Help (North Light Community Center)  ,40.0285246,-75.2245281,1.0,0.0,0.5,1.149999827500026e-06,0.8333333333333334,0.077,0.043010752688172046,10.0
150,clhjrc19l0783qd0hhzw6ucki,Feed My Sheep Street Ministry/Potters Ho,39.9731978,-83.0889883,1.0,0.0,0.5,1.4999997750000338e-07,0.6666666666666666,0.1853,0.03763440860215054,0.0
151,clwvnak0c02byfeie9jkgigy8,Destination Tomorrow,40.814991,-73.915489,1.0,0.0,0.5,1.3999997900000316e-06,0.7333333333333334,0.2726,0.6344086021505376,12.5
152,clhgbvfa6003qmi0fval20k37,Leave a Mark Church Food Pantry,39.8645169,-82.9881109,1.0,0.0,0.5,6.499999025000147e-07,0.9166666666666666,0.1589,0.0,5.0
153,cm571mzkq00wp1h1wmkta9a52,Primitive Christian Church,40.714022,-73.987782,1.0,0.0,0.5,2.9499995575000663e-06,0.7999999999999999,0.3883,0.6129032258064516,28.0
154,cmkr8o8jp01rnygfpv78q7kg8,Unique People Services,40.8417984,-73.8597325,1.0,0.0,0.5,1.4999997750000338e-07,0.75,0.1235,0.16666666666666666,0.0
155,clemx7m3c0000mu0f8czv95a3,Grace Bible Church Food Pantry,39.86161,-75.0577836,1.0,0.0,0.5,6.499999025000147e-07,0.8333333333333334,0.0558,0.021505376344086023,5.0
156,1565,Vets Honor House ,40.694756,-73.779498,1.0,0.0,0.5,2.5499996175000573e-06,0.6,0.0817,0.3602150537634409,24.0
157,cl6d67xzf074704wym2dsystx,Gompers School (FOOD SITE),39.9924771,-75.2380613,1.0,0.0,0.5,1.3499997975000304e-06,0.5833333333333334,0.12,0.12903225806451613,12.0
158,ckykb6uxe019904ywzqu1zvup,Campbell AME Church,40.0132154,-75.0847415,1.0,0.0,0.5,1.4999997750000338e-07,0.0,0.5608,0.2956989247311828,0.0
159,cl4nq9vm2050104xrh1nxva2r,Playstreet 2700 S. Fairhill St.,39.9141402338188,-75.1582039031937,0.0,0.0,0.5,1.4999997750000338e-07,0.0,0.1861,0.1774193548387097,0.0
160,18,RaisingHealth – Sunset Park Center,40.6461747484054,-74.0169126021426,1.0,0.0,0.5,1.4999997750000338e-07,0.6666666666666666,0.1216,0.15053763440860216,0.0
161,1026,Seaview C Development,40.5945746,-74.1311164,1.0,0.0,0.5,1.4999997750000338e-07,0.0,0.1447,0.03763440860215054,0.0
162,1275,Project ORE at the Sirovich Center for Balanced Living,40.730488,-73.984367,0.0,0.0,0.5,3.149999527500071e-06,0.5833333333333334,0.1166,0.489247311827957,30.0
163,cmhfteg8j01gfxn44437ksed1,Fresh by Ujamaa Cafe-  North Bergen Kennedy Branch Public Library,40.762325,-74.042618,1.0,0.0,0.5,3.149999527500071e-06,0.6666666666666666,0.2139,0.13440860215053763,30.0
164,cm5nhrkb002q6x829hzxfdf1s,P.S.18 Resource Hub,40.816319,-73.922806,1.0,0.0,0.5,3.149999527500071e-06,1.0,0.5,0.7096774193548387,30.0
165,cle82ewea02jq0d02xm49agq5,Barcroft Elementary School,38.860182,-77.110653,1.0,0.0,0.5,1.4999997750000338e-07,0.0,0.0533,0.03763440860215054,0.0
166,clp2sw5t009vfqm8hnbelakfi,Community Health Van Menino YMCA,42.2571744,-71.1204395,1.0,0.0,0.5,1.149999827500026e-06,1.0,0.0907,0.053763440860215055,10.0
167,cli4y142b03c9vy02onatz7km,CHRISTIAN OUTREACH CENTER,27.8756052,-82.8334813,1.0,0.0,0.5,4.149999377500093e-06,0.88095238095238,0.0623,0.005376344086021506,40.0
168,cl4nq9vlx047304xrk3dj3fel,Playstreet 2000 S Bonsall St.,39.9270458810623,-75.18490437194,0.0,0.0,0.5,1.4999997750000338e-07,0.0,0.1583,0.43010752688172044,0.0
169,clg6b8qjn001umn0flo3lpyrc,Centro SOL (Mt. Clare),39.2835717,-76.6383012,1.0,0.0,0.5,1.149999827500026e-06,0.6666666666666666,0.1087,0.3064516129032258,10.0
170,clg92gfvt0000ju0f9b1zu3qo,Southwest Emergency Services,39.2528222,-76.7011044,1.0,0.0,0.5,1.149999827500026e-06,0.8666666666666667,0.0899,0.021505376344086023,10.0
171,clehqiy3c0000l90fgf7y90xe,Bridgeton Spanish Seventh-Day Adventist Church,39.436688,-75.2299077,1.0,0.0,0.5,1.149999827500026e-06,0.76923076923077,0.4139,0.10752688172043011,10.0
172,clefmnlkx0000mq0foe73dj6h,Prince of Peace Lutheran Church,39.8929698,-74.920132,1.0,0.0,0.5,6.499999025000147e-07,0.8888888888888901,0.0332,0.021505376344086023,5.0
173,ckyi91nht015104vj07zyswif,Highland Park Community Food Pantry ,40.497728,-74.421922,1.0,0.0,0.5,2.149999677500048e-06,0.8333333333333334,0.163,0.07526881720430108,20.0
174,cldoqv57a000tld0fcri904hi,Harvard Square Homeless Shelter (HSHS),42.3717823,-71.1200154,0.0,0.0,0.5,3.149999527500071e-06,0.6666666666666666,0.1624,0.11290322580645161,30.0
175,cldn996lp0006md0f898gq0ln,Our Daily Bread Food Pantry at Crossroads Family Center,42.3711673,-71.0400523,1.0,0.0,0.5,3.149999527500071e-06,0.8333333333333334,0.229,0.13440860215053763,30.0
176,ckysc24qc280863zun6yply21x,"Happy Hands Foundation, Inc.",40.7613383,-74.2221971,1.0,0.0,0.5,1.4999997750000338e-07,0.0,0.1522,0.3870967741935484,0.0
177,335,"NeON Nutrition Kitchen food pantry, Staten Island",40.6339765,-74.0754038,1.0,0.0,0.5,3.499999475000079e-07,0.9375,0.3011,0.23655913978494625,2.0
178,cmi66f73d11qy04e8pnw84qfl,Woodcliff Christian Harvest,40.7992702,-74.0061561,1.0,0.0,0.5,1.149999827500026e-06,0.9696969696969701,0.0467,0.11290322580645161,10.0
179,clii1vrnj0eftqm0hc3mmrqr3,Lockhart Magnet - Feeding Tampa Bay,27.9788531,-82.4377609,1.0,0.0,0.5,2.149999677500048e-06,0.7222222222222233,0.3467,0.1989247311827957,20.0
180,cm9xr9ee1007d042bgn20eiub,Summit Stage Bus Barn,39.56966,-106.082809,1.0,0.0,0.5,1.4999997750000338e-07,0.0,0.0896,0.0,0.0
181,517,"Grand Central Food Program, SONY Building",40.7612329,-73.9726722,0.0,0.0,0.5,1.649999752500037e-06,0.6666666666666666,0.1317,0.3763440860215054,15.0
182,clh0uq5yj0010i70fuujf61o1,Mt. Olive Presbyterian Church – Nourish Up - Referral Required,35.2088263,-80.979531,1.0,0.0,0.5,1.149999827500026e-06,0.8787878787878799,0.2085,0.005376344086021506,10.0
183,132,Bikur Cholim of Staten Island,40.6028713,-74.1354195,1.0,0.0,0.5,1.4999997750000338e-07,0.0,0.2336,0.06451612903225806,0.0
184,clh37drjm001mla0ft9iw1mth,Mt. Zion CME Church ,39.9003612,-75.2701239,1.0,0.0,0.5,2.8999995650000654e-06,0.7999999999999999,0.2838,0.043010752688172046,27.5
185,clhjntlas06ous60hr55bvnu0,Southwestern Church of Christ Pantry,39.8816282,-83.1032742,1.0,0.0,0.5,1.649999752500037e-06,0.6666666666666666,0.0079,0.005376344086021506,15.0
186,cmhkkg0u71c353bcq5m7uaaw1,Reach Community Development Center Inc,33.8080739,-84.1875246,1.0,0.0,0.5,1.4999997750000338e-07,1.0,0.0836,0.010752688172043012,0.0
187,1167,St. Ignatius Episcopal Church,40.7892501,-73.97708,0.0,0.0,0.5,1.149999827500026e-06,1.0,0.0434,0.16129032258064516,10.0
188,cle7e5wce000pmf0fbeq6t2wv,Plymouth Congregational United Church of Christ - Food Pantry,38.9552731,-77.0086456,1.0,0.0,0.5,1.4999997750000338e-07,0.0,0.0469,0.10215053763440861,0.0
189,cmhar576o0dfz24fltg4v8dah,Sandu Ministries,33.6438877,-84.3625834,1.0,0.0,0.5,1.4999997750000338e-07,0.7777777777777767,0.251,0.016129032258064516,0.0
190,cmdtapp4m09bt170vo7h0fgjy, In The Beginning Outreach Inc,40.7035619,-73.7671911,1.0,0.0,0.5,3.149999527500071e-06,0.3333333333333333,0.0941,0.2849462365591398,30.0
191,clhhx1d7t004ald0fpsvoaq7s,Eastside Grace Food Pantry,39.9867117,-82.796124,1.0,0.0,0.5,1.149999827500026e-06,0.75,0.0357,0.005376344086021506,10.0
192,clncplpgw00nou5294hhpudh4,Legacy Church Inc.,40.440627,-74.3654828,1.0,0.0,0.5,8.999998650000202e-07,1.0,0.1309,0.03225806451612903,7.5
193,cle64qwjk02f320021m38rsed,St. Augustine's Soup Kitchen,40.2165327,-74.0177521,1.0,0.0,0.5,1.4999997750000338e-07,0.0,0.2834,0.22043010752688172,0.0
194,clongl5vl00xoli0gar02pc16,Feeding the Fridge / Riverdale Latin American Youth Center,38.9650569,-76.9110957,0.0,0.0,0.5,1.4999997750000338e-07,0.0,0.2045,0.021505376344086023,0.0
195,clihm7q7k0ci6o70h5qog8st6,Ridgecrest YMCA,27.9003259,-82.8027202,1.0,0.0,0.5,6.499999025000147e-07,0.6666666666666666,0.1278,0.053763440860215055,5.0
196,cmagsie7z01np2a0v95q7culs,Riseboro Farmers Market At Hope Ballfield,40.6971782,-73.9168719,1.0,0.125,0.5,6.499999025000147e-07,0.7333333333333334,0.3181,0.41397849462365593,5.0
197,cmeiro7du05k0wtgrtaaqn4ig,Bite NJ,40.7128378,-74.0839161,1.0,0.0,0.5,6.1499990775001386e-06,0.8666666666666667,0.1817,0.3279569892473118,60.0
198,cllx9saw403ku164ubcbhmi3h,"Nourish Food Pantry at Mt. Olive UMC, Community Meal",39.36311,-76.7765,0.0,0.0,0.5,2.149999677500048e-06,0.75,0.107,0.053763440860215055,20.0
199,cli4y1wvp03yfvy02ahbth8zq,Harvest International,28.0948656,-82.0249963,1.0,0.0,0.5,6.499999025000147e-07,0.8666666666666667,0.185,0.005376344086021506,5.0
200,clg91otfu002wmj0fewj5pvzi,Shining Star Baptist Church,39.3478765,-76.388212,1.0,0.0,0.5,6.499999025000147e-07,0.8333333333333334,0.0808,0.010752688172043012,5.0
201,cl4nq9vlz048104xrs4uj1eut,Playstreet 4500 Mercer St.,40.0014604,-75.0723507,0.0,0.0,0.5,1.4999997750000338e-07,0.0,0.1278,0.1827956989247312,0.0
202,cle64pzl901ph2002ekwy6ztn,Abundant Grace Pantry,39.9927823,-74.2070058,1.0,0.0,0.5,1.149999827500026e-06,0.8571428571428567,0.0252,0.016129032258064516,10.0
203,ckywjg0fg013804xjm2phlkbi,Ferko Playground,40.0164962001704,-75.102560199684,0.0,0.0,0.5,1.4999997750000338e-07,0.0,0.0874,0.26881720430107525,0.0
204,cldotamn50004l90fymp4o6tf,Brooklyn Food Corps / Brooklyn Rescue(Holy Resurection Orthodox Church),42.3541086,-71.1320865,1.0,0.0,0.5,1.4999997750000338e-07,0.0,0.3331,0.04838709677419355,0.0
205,cliut4f680248mg0hyb14h5s6,Bensalem Presbyterian Church,40.1329807,-74.932614,1.0,0.0,0.5,1.4999997750000338e-07,0.8888888888888901,0.0384,0.010752688172043012,0.0
206,ckydc6ge72628503nw6mcb12639,Bartram Resident Council,39.930789,-75.2149727,1.0,0.0,0.5,1.4999997750000338e-07,0.0,0.5425,0.3978494623655914,0.0
207,1327,United Church of Praise Intl. Ministries,40.6145783,-74.085807,1.0,0.0,0.5,1.4999997750000338e-07,0.0,0.3223,0.1881720430107527,0.0
208,cmh2ago1002ky1me4hj9wnij8,East Side - The Bulb,35.2339929,-80.7612351,1.0,0.125,0.5,1.4999997750000338e-07,0.3333333333333333,0.2062,0.03225806451612903,0.0
209,cl4nq9vlz047704xrds7i33xl,Playstreet 3000 N Ringgold St.,40.0010452816301,-75.1703567407887,0.0,0.0,0.5,1.4999997750000338e-07,0.0,0.3643,0.6774193548387096,0.0
210,clr6r1epg1yr71gs8dzsqqybl,ServFirst Inc.,33.589967,-84.4275856,1.0,0.0,0.5,1.4999997750000338e-07,0.8119658119658134,0.2283,0.005376344086021506,0.0
211,cl2h521ea006404zgiju6rc4o,Northeast Philadelphia Family Service Center (Catholic Social Services) ,40.0332639,-75.0353547,1.0,0.0,0.5,7.99999880000018e-07,0.85897435897436,0.2962,0.0967741935483871,6.5
212,ckyenuvxl002p04vtc1cc5kk9,ABUNDANT LIFE WORSHIP CENTER,40.823989,-74.43635,1.0,0.0,0.5,1.4999997750000338e-07,0.0,0.0493,0.005376344086021506,0.0
213,clz8qjo2r0r23ion9legc4kwj,Global Refuge,33.7994212,-84.2108548,1.0,0.0,0.5,2.6499996025000595e-06,1.0,0.1389,0.026881720430107527,25.0
214,cm9mbr1eg00r4ym2lj6miqpou,Valle De Jesus Servicing With Love,40.705936,-73.944565,1.0,0.0,0.5,1.4999997750000338e-07,0.0,0.297,0.43548387096774194,0.0
215,clnnm16mv01g1s50fsrnvtequ,First Presbyterian Church of Brooklyn,40.6970349,-73.9937004,1.0,0.0,0.5,1.149999827500026e-06,0.6666666666666666,0.0465,0.25806451612903225,10.0
216,cldoap5jl0000mi0fuz7hvsdi,Brookline Food Pantry,42.3401891,-71.1213237,1.0,0.0,0.5,1.4999997750000338e-07,0.8333333333333334,0.1025,0.07526881720430108,0.0
217,cleax8p30002xzg02smoqm6bi,Promised Land Missionary Baptist Church,40.7232857,-74.1980071,1.0,0.0,0.5,1.4999997750000338e-07,0.5555555555555567,0.3599,0.7526881720430108,0.0
218,clb1c0kts028lun042wdgmyrk, Food Cupboard at Church of St Andrew and St Monica,39.9607959388777,-75.1941336855265,1.0,0.0,0.5,1.4999997750000338e-07,0.6666666666666666,0.4818,0.44086021505376344,0.0
219,cmhkodzc20qi4yhea6yv2cx1v,Word of Life International Church of God,33.8657265,-84.1910378,1.0,0.0,0.5,4.399999340000099e-06,1.0,0.0423,0.0,42.5
220,cmh98ipmn0p27ysfhvhq2qwz2,Schaffer Rd Church of Christ,33.8990521,-84.5697198,1.0,0.0,0.5,1.4999997750000338e-07,0.7333333333333334,0.0801,0.005376344086021506,0.0
221,cldmoxy9a002hl80f4mt9nwp2,Central Food Ministry,42.6577707,-71.3139654,1.0,0.0,0.5,6.1499990775001386e-06,1.0,0.3535,0.06989247311827956,60.0
222,cm8njshbi08qz0j0vkj9l7w9e,Nourish UP @ Care Ring - Referral Required,35.2425739,-80.8331328,1.0,0.0,0.5,1.149999827500026e-06,1.0,0.2681,0.07526881720430108,10.0
223,cm02i7ue31p534ni5pkdh9h5r,Crossroads of Michigan,42.3614065,-83.0958234,1.0,0.0,0.5,3.6499994525000822e-06,0.8095238095238101,0.6185,0.07526881720430108,35.0
224,cluhfb6zk0ggmjyjmktp0h10a,Mansion Apt Community Center: popup pantry,39.7897098,-74.999091,1.0,0.0,0.5,1.649999752500037e-06,0.5555555555555567,0.2321,0.03225806451612903,15.0
225,ckz3zs3zh159104420501x447p4,Community Solidarity,40.6899349,-73.9490463,1.0,0.0,0.5,1.4999997750000338e-07,0.3333333333333333,0.3202,0.6075268817204301,0.0
226,clgiaugtl0000mg0fvwh6460r,Greater Grace World Outreach,39.3151503,-76.5428689,1.0,0.0,0.5,1.4999997750000338e-07,0.5333333333333333,0.1771,0.021505376344086023,0.0
227,cl2h521eb006604zgl5juuhws,Rodeph Shalom,39.9636294160772,-75.160800772828,0.0,0.0,0.5,1.4999997750000338e-07,0.0,0.3476,0.5860215053763441,0.0
228,ckx21o1kr21323nxn7zok39p6,House of Love Soup Kitchen,40.7500391,-74.1992029,0.0,0.0,0.5,1.4999997750000338e-07,0.0,0.2512,0.553763440860215,0.0
229,cli4y0bw502czvy02c6t8ay87,St. Anne Catholic Church,27.7289249,-82.4329142,1.0,0.0,0.5,3.149999527500071e-06,0.8888888888888901,0.1319,0.0,30.0
230,cldp3ey5g000smr0f98tey0or,Elizabeth Peabody House,42.3918129,-71.0912123,1.0,0.0,0.5,1.149999827500026e-06,1.0,0.0973,0.05913978494623656,10.0
231,clp2puti309bpqm8hvdgwpmx5,Twelfth Baptist Church Food Pantry,42.3252486,-71.0827205,1.0,0.0,0.5,6.499999025000147e-07,0.8888888888888901,0.1928,0.42473118279569894,5.0
232,clg4p1kre0030jj0gbglnth81,"Community Impact, Inc",39.3581277,-76.7682325,1.0,0.0,0.5,1.4999997750000338e-07,0.0,0.107,0.03763440860215054,0.0
233,clgg9bdma0000mk0fex6rfuqq,HOPKINS FOOD PANTRY,39.3247877,-76.6168494,1.0,0.0,0.5,8.999998650000202e-07,0.6666666666666666,0.1852,0.25806451612903225,7.5
234,ckykb6uxl021304ywqtxdksf9,Masjidullah Center for Human Excellence,40.0677613,-75.1588449,1.0,0.0,0.5,1.149999827500026e-06,0.7333333333333334,0.0941,0.16666666666666666,10.0
235,cmg5f8tdj04tbzqfnwuamwwhm,Muna - Baitul Adam,40.9174229,-74.1857145,1.0,0.0,0.5,9.999998500000225e-07,0.8333333333333334,0.3029,0.23655913978494625,8.5
236,ckygzwtz7255753q186onh8615,First African Presbyterian Church,39.9738425,-75.2096643,1.0,0.0,0.5,1.8999997150000427e-06,0.9166666666666666,0.5372,0.40860215053763443,17.5
237,climtkbz002momg0h8f1ffvrq,Newark Water Coalition - Clinton Avenue,40.7224309,-74.1911151,1.0,0.0,0.5,1.149999827500026e-06,0.7777777777777767,0.3599,0.7150537634408602,10.0
238,clvnubtam00jmycwyepgxttnv,Mighty Writers Camden East,39.9586601,-74.9736497,1.0,0.0,0.5,1.4999997750000338e-07,0.3333333333333333,0.1029,0.010752688172043012,0.0
239,cle64ohbb00mc2002ohnwrkh6,Chews United Methodist Church,39.8370037,-75.0685595,1.0,0.0,0.5,1.8999997150000427e-06,0.91111111111111,0.0814,0.026881720430107527,17.5
240,ckys91esh116453zunstk66vub,NAMI Connection,40.9628628,-74.0728798,1.0,0.0,0.5,1.4999997750000338e-07,0.0,0.0441,0.010752688172043012,0.0
241,ckyenuvxp004k04vt4ds49hwj,HELPING HANDS FOOD PANTRY OF TEANECK,40.9022756,-74.0044257,1.0,0.0,0.5,1.149999827500026e-06,0.6666666666666666,0.0504,0.08602150537634409,10.0
242,clyxds8ip0v6lvlqfxs9vpq1r,"Grand Central Food Program, 5th ave & 55th st",40.7611346,-73.9733959,0.0,0.0,0.5,1.4999997750000338e-07,0.0,0.1317,0.3602150537634409,0.0
243,ckyenuvxp004o04vtdsgz6tk1,Damascus Christian Church,40.7344394,-74.0770109,1.0,0.0,0.5,3.149999527500071e-06,0.5,0.1186,0.17204301075268819,30.0
244,cliat1w0y0afst50huirxwkp5,St. Cecilia’s Kitchen,39.3113125,-76.6726957,1.0,0.0,0.5,1.649999752500037e-06,0.3333333333333333,0.3175,0.12903225806451613,15.0
245,clic9wto100l1o80fk714o9rf,ST. MARY COPTIC ORTHODOX CHURCH,27.9885946,-82.7161934,1.0,0.0,0.5,1.4999997750000338e-07,0.0,0.1979,0.043010752688172046,0.0
246,cle64pkyh01g32002iy0br704,St. Joseph's Pro-Cathedral ,39.9475905,-75.0840892,1.0,0.0,0.5,1.4999997750000338e-07,0.0,0.3256,0.1827956989247312,0.0
247,ckxz77txg00au04z6a9b9auod,ZION HILL BAPTIST CHURCH,40.532286,-74.478527,1.0,0.0,0.5,1.149999827500026e-06,0.7333333333333334,0.0161,0.010752688172043012,10.0
248,cli4y194203hrvy02aphqs9a9,Pinellas Community Church (Feed St. Pete),27.7177559,-82.6760848,1.0,0.0,0.5,2.149999677500048e-06,0.7777777777777767,0.203,0.010752688172043012,20.0
249,ckygzec79241003q18wje6kxk0,Fellowship Greater Jehovah Baptist Church,40.0031698,-75.1492936,1.0,0.0,0.5,3.149999527500071e-06,0.3333333333333333,0.3874,0.7311827956989247,30.0
250,clg8xk9if000sml0gnrxs477z,GraceWay International Community Church,39.2612763,-76.5163336,1.0,0.0,0.5,1.149999827500026e-06,0.7777777777777767,0.2192,0.04838709677419355,10.0
251,clehe2lt20002l80ff56vagqi,Camden Rescue Mission,39.9239776,-75.1192809,1.0,0.0,0.5,1.4999997750000338e-07,0.6666666666666666,0.4455,0.26344086021505375,0.0
252,cmh9ayy4g0pfjyme9lzgrfxvb,Ebenezer Baptist Church,33.7551977,-84.3742064,1.0,0.0,0.5,1.4999997750000338e-07,0.0,0.1136,0.06451612903225806,0.0
253,cm6rz2okd007kzu0vtmahxwvd,CHIPS Mobile Pantry @ PS 124,40.6674875,-73.9906623,1.0,0.0,0.5,3.149999527500071e-06,0.8461538461538467,0.1197,0.13440860215053763,30.0
254,clrax6q760juod8z8ac52l807,Southeast Gwinnett Cooperative Ministry   ,33.8929664,-83.94908,1.0,0.0,0.5,3.149999527500071e-06,1.0,0.0742,0.0,30.0
255,clikvj7rv07zflo0gw5tn27y3,POSITIVE SPIN INC,27.9938292,-82.3942965,0.0,0.0,0.5,3.149999527500071e-06,0.3333333333333333,0.1183,0.03225806451612903,30.0
256,clm9fwbcw0030qu0h2sns8m36,Goodwill’s Job Connection Center-SNAP Assistance,27.7950479,-82.6806615,0.0,0.0,0.5,1.4999997750000338e-07,0.6666666666666666,0.0702,0.026881720430107527,0.0
257,cleho41es002tmq0f5lphhu0s,Trinity Evangelical Lutheran Church,39.8503559,-75.0703793,1.0,0.0,0.5,1.4999997750000338e-07,0.75,0.1064,0.03763440860215054,0.0
258,cm9uwe2s2028kv329f5736n41,Summer Feeding Program- Littleton Public Schools,39.613888,-104.984863,1.0,0.0,0.5,1.4999997750000338e-07,0.0,0.0542,0.010752688172043012,0.0
259,cmhz8s7yn100e04fka3wxe4nc,Salvation Army Tampa,27.9598903,-82.4592127,1.0,0.0,0.5,3.149999527500071e-06,0.8888888888888901,0.4361,0.10752688172043011,30.0
260,cle64pfmp01bc2002nafv05c1,RCCG-Victory House Parish,39.9105346,-75.0880799,1.0,0.0,0.5,1.4999997750000338e-07,0.0,0.1654,0.11290322580645161,0.0
261,cmlv3k3uc0dno3yfnlvrzhcgm,Edenwald Office,40.8852708,-73.8446169,1.0,0.0,0.5,3.149999527500071e-06,0.3333333333333333,0.3543,0.25268817204301075,30.0
262,cm2ja8sbr00zzxjidjcpbbiqy,BEAMING HOPE CHURCH,27.8727973,-82.7915642,1.0,0.0,0.5,1.149999827500026e-06,1.0,0.1568,0.010752688172043012,10.0
263,cm2m7frck00zh8bt8q13ucc3q,The Baltimore Convention Center,39.2855202,-76.6185226,1.0,0.0,0.5,1.4999997750000338e-07,0.0,0.1618,0.3010752688172043,0.0
264,ckypcx2ee36053yypgdh76607,Church of Pentecost,39.9364657,-75.1867768,1.0,0.0,0.5,1.649999752500037e-06,0.7999999999999999,0.1223,0.4731182795698925,15.0
265,clublrmcv0ug8zm6scpykkhm3,anchor church / Messengers of Hope,28.0200845,-82.7040671,1.0,0.0,0.5,3.149999527500071e-06,0.7333333333333334,0.0312,0.010752688172043012,30.0
266,clhl3oeaw01szs90hezyobowd,Manna Food @ The Universities at Shady Grove,39.0932756,-77.200938,1.0,0.0,0.5,2.149999677500048e-06,0.7999999999999999,0.1592,0.005376344086021506,20.0
267,clhhysa0h001il00fc7zha6mg,Gladden Community House,39.9522396,-83.0288006,1.0,0.0,0.5,1.149999827500026e-06,0.6666666666666666,0.4693,0.12903225806451613,10.0
268,cm9nr6fpn0082sz2n3nhvzymx,Grand Valley Catholic Outreach,39.065716,-108.571297,1.0,0.0,0.5,1.4999997750000338e-07,0.0,0.0799,0.021505376344086023,0.0
269,clejgbl1u000dmk0fcox54fv1,Christian Caring Center,39.9619345,-74.5712034,1.0,0.0,0.5,7.99999880000018e-07,0.8611111111111099,0.1511,0.021505376344086023,6.5
270,cmdxfrbmy03gg0ako90ngwuot,St. Peters - Yvonne Gittens Food,40.6677695,-73.7333874,1.0,0.0,0.5,1.149999827500026e-06,0.8888888888888901,0.1068,0.05913978494623656,10.0
271,cleg98ueg000jmh0frfaz4ql2,Cathedral Of Love Food Pantry,40.0306249,-74.9119485,1.0,0.0,0.0,2.399999640000054e-06,0.0,0.0992,0.03763440860215054,22.5
272,cledy19ph000tl60fwaicy81a,Bridgeton Union Baptist Temple,39.424608,-75.229258,1.0,0.0,0.5,3.149999527500071e-06,0.8333333333333334,0.4117,0.11827956989247312,30.0
273,cle64osch00uz20021izxv4by,Green Grove Baptist Church,39.794902,-74.915175,1.0,0.0,0.5,1.4999997750000338e-07,0.9,0.0287,0.016129032258064516,0.0
274,ckxz77tve006a04z6cvudfnzk,Bethany Grace Community Church,39.42965,-75.23212,1.0,0.0,0.5,1.149999827500026e-06,0.7777777777777767,0.4696,0.12365591397849462,10.0
275,799,New Covenant Temple,40.8278232,-73.9452127,1.0,0.0,0.5,1.149999827500026e-06,0.7777777777777767,0.2063,0.3978494623655914,10.0
276,clegpmlvs0000l50feiucdhq6,St. Paul's Pantry ,39.9379068,-74.1889958,1.0,0.0,0.5,3.99999940000009e-07,1.0,0.0423,0.026881720430107527,2.5
277,cmclhs2iv00cevl2cmx6r9z0d,Garfield House of Mercy,40.880417,-74.101295,1.0,0.0,0.5,3.149999527500071e-06,0.7916666666666666,0.1882,0.15053763440860216,30.0
278,cmdq1rjx800qbxo0whzb15nuz,GRACE & PEACE FOOD BANK ,40.8129873,-73.8542655,1.0,0.0,0.5,1.149999827500026e-06,0.75,0.0604,0.08602150537634409,10.0
279,cmiqz6eay00xdzqcrq96f9vq9,St. John Baptist Church,40.856698,-73.8892105,1.0,0.0,0.5,3.149999527500071e-06,0.5555555555555567,0.3658,0.3924731182795699,30.0
280,cldnbtgt7000el70gzmx6hota,Ethos Nate Smith House Café,42.3181362,-71.1044949,0.0,0.0,0.5,4.499999325000101e-07,1.0,0.2072,0.27956989247311825,3.0
281,cm460n3xl00lztkz15koshuym,Gladtidings House of Prayer for All Nations,42.2773732,-71.0922594,1.0,0.0,0.5,1.4999997750000338e-07,0.75,0.3234,0.1935483870967742,0.0
282,cljbv20xh011rrs0h7m5uofv9,SOCKS,35.2671166,-81.0442194,1.0,0.0,0.5,1.149999827500026e-06,0.7999999999999999,0.1519,0.0,10.0
283,ckykb6v8t060204yw50n3mttw,Good Samaritan Baptist Church,39.9754029,-75.2433871,1.0,0.0,0.5,1.149999827500026e-06,1.0,0.1679,0.45698924731182794,10.0
284,cmdndyye301wtyu0vvkufsdjl,EAST NEW YORK SEVENTH DAY ADVENTIST CHURCH,40.6704214,-73.8823121,1.0,0.0,0.5,4.649999302500105e-06,1.0,0.152,0.34946236559139787,45.0
285,cmfpw69st09n5yqguotq2y5bl,Bread of Life/The Family Church,42.4021117,-71.0426329,1.0,0.0,0.5,1.4999997750000338e-07,0.7333333333333334,0.0779,0.043010752688172046,0.0
286,cky7ixrtf170383jss9jco50dm,St. Philip & St. James Church,40.6853973,-75.1911492,0.0,0.0,0.5,2.149999677500048e-06,0.6666666666666666,0.278,0.10215053763440861,20.0
287,clydefqox00ba1syk5xtmk9k9,YMCA Boston Mobile @ East Boston,42.3734961,-71.0331218,1.0,0.0,0.5,3.99999940000009e-07,0.8333333333333334,0.1417,0.11290322580645161,2.5
288,cm54i7tnc002b1s0wgbduo4q9,Blessed Hope Christian Church Community Outreach,42.2290161,-83.198207,1.0,0.0,0.5,3.149999527500071e-06,0.9,0.1678,0.0,30.0
289,cm5a0w8ri00sg2k0vsp8z4enw,SeVerna,38.9028352,-77.0115097,1.0,0.0,0.5,4.649999302500105e-06,0.8333333333333334,0.6631,0.20430107526881722,45.0
290,ckyoo0t2a611473wqe76yjee40,Word of Deliverance Fellowship Ministries,39.931778,-75.1699421,1.0,0.0,0.5,1.4999997750000338e-07,0.6666666666666666,0.269,0.6075268817204301,0.0
291,clhg5go4t003eme0fpgcl0h8b,Gethsemane Lutheran Church,40.074114,-83.0175874,1.0,0.0,0.5,6.1499990775001386e-06,1.0,0.0502,0.005376344086021506,60.0
292,ckypic1h5180593yyphqch3e56,Borough of Bergenfield,40.9346113,-73.9959041,1.0,0.0,0.5,1.4999997750000338e-07,0.6666666666666666,0.0545,0.03763440860215054,0.0
293,ckyl0i2a1125114143in01td08,Mantua Scattered Site Tentant Council,39.9638739,-75.197731,1.0,0.0,0.5,1.649999752500037e-06,0.3333333333333333,0.4868,0.45698924731182794,15.0
294,ckwzh1c0800273hvojtfqn6t5,Secaucus Food Pantry,40.7906046,-74.0589078,1.0,0.0,0.5,1.8999997150000427e-06,0.3333333333333333,0.1358,0.010752688172043012,17.5
295,clw07mfhh00fvm25dk92elxel,"It Takes A Village, Ours Is Home",40.673611,-73.789688,1.0,0.0,0.5,1.4999997750000338e-07,0.6666666666666666,0.2035,0.13978494623655913,0.0
296,cll7jtfo5008dyjwt70r45az9,Mom's Food Pantry,40.9280075,-73.9965468,1.0,0.0,0.5,1.4999997750000338e-07,0.75,0.0545,0.04838709677419355,0.0
297,cls2d9np815mtvhw57l2rwd1j,Pfeiffer Community Center,39.6826153,-74.993248,1.0,0.0,0.5,1.3499997975000304e-06,0.8240740740740734,0.0743,0.053763440860215055,12.0
298,cljrg4a1m00esuv0gobfq66tt,Mercer Street Friends @ Benjamin C. Gregory Elementary,40.2317134,-74.7773196,1.0,0.0,0.5,1.4999997750000338e-07,0.7916666666666666,0.3426,0.3172043010752688,0.0
299,cm58xso3401muyw0v647ly5ts,Acts 29 Foccus,28.0689369,-82.5423454,1.0,0.0,0.5,1.4999997750000338e-07,0.0,0.1239,0.005376344086021506,0.0
300,cl775ez4h2739404ukzqzaagqt,New Hope AME Zion Church,40.0440040815861,-75.1689202502226,1.0,0.0,0.5,1.149999827500026e-06,0.7777777777777767,0.23,0.4731182795698925,10.0
301,cli599eu003lfpi0gk3jy5qtb,High Point Neighborhood Center,27.9084558,-82.7132585,0.0,0.0,0.5,1.649999752500037e-06,0.8333333333333334,0.1048,0.026881720430107527,15.0
302,ckyoj038u1063063lynmdf5vk8s,Philadelphia Episcopal Cathedral ,39.9557452,-75.1980398,0.0,0.0,0.5,1.4999997750000338e-07,0.0,0.1322,0.45161290322580644,0.0
303,clei769hy0001l70fx6e4ro8o,St. Luke's ,40.0129096,-74.2035333,1.0,0.0,0.5,1.149999827500026e-06,1.0,0.0431,0.010752688172043012,10.0
304,cleil6kes003zl60fgo0kyrod,Angel’s Closet,39.4060325,-75.0167833,1.0,0.0,0.5,1.3999997900000316e-06,0.9047619047619033,0.1897,0.043010752688172046,12.5
305,cm9nr6fa2007qsz2n2sti4gmh,Agape Food Basket of the Lower Valley,39.15942,-108.730614,1.0,0.0,0.5,1.4999997750000338e-07,0.0,0.1054,0.005376344086021506,0.0
306,ckynhck7o5594963t2dyx5q2cao,Lutheran Church of the Holy Communion,39.9517253,-75.176107,1.0,0.0,0.5,6.499999025000147e-07,1.0,0.0685,0.5645161290322581,5.0
307,1102,"St. Augustine's American Catholic Church, Inc.",40.6682649,-73.9341222,1.0,0.0,0.5,1.4999997750000338e-07,0.0,0.1044,0.6720430107526881,0.0
308,cmdhliqrn006q1h0xfhwmzxqr,Mt. Zion Holy Church,39.9624433,-75.2061334,1.0,0.0,0.5,6.1499990775001386e-06,1.0,0.2796,0.510752688172043,60.0
309,clh0sty240000jq0fshglwo2p,Central Apostolic Faith - Feed my Sheep,35.2157557,-80.7462337,1.0,0.0,0.5,4.499999325000101e-07,0.7999999999999999,0.2258,0.021505376344086023,3.0
310,clg7uly280000l30fwt1dhmyl,Harvest Christian Worship Center,39.3115438,-76.6438544,1.0,0.0,0.5,4.649999302500105e-06,0.0,0.1952,0.3010752688172043,45.0
311,cle64q7y601w220022b2siwdf,Eatontown Food Coop,40.2772532,-74.0515089,1.0,0.0,0.5,2.149999677500048e-06,0.8333333333333334,0.074,0.0,20.0
312,clgg3o5yc0014l20fy9yayo9f,Project Plase,39.3131307,-76.6148404,1.0,0.0,0.5,1.149999827500026e-06,0.3333333333333333,0.2547,0.3870967741935484,10.0
313,clg7mjkbn0000mp0fnjk8mbkl,Agape House ,39.3051386,-76.6635195,1.0,0.0,0.5,6.499999025000147e-07,0.0,0.1711,0.22043010752688172,5.0
314,ckyktob1f111664143kl909fvb,Living Vine Apostolic Faith Church,40.0253731,-75.1499775,1.0,0.0,0.5,1.4999997750000338e-07,1.0,0.2813,0.45698924731182794,0.0
315,1397,The Salvation Army: Port Richmond Corps,40.626591,-74.133102,1.0,0.0,0.5,6.499999025000147e-07,0.8333333333333334,0.1193,0.15591397849462366,5.0
316,cmjmzj7t60o2pykfpbi4v0347,James Spring Memorial Baptist Church,39.9934579,-75.1625763,1.0,0.0,0.5,1.149999827500026e-06,0.8888888888888901,0.2945,0.967741935483871,10.0
317,cldopw2fw001dmk0f159g8j95,Eliot Congregational Church (Boston Treatment Ctr),42.3209161,-71.0854789,1.0,0.0,0.5,3.149999527500071e-06,0.6666666666666666,0.2864,0.43548387096774194,30.0
318,cllqqj0is00golh0hnosg376f,Project Healthy Community Mobile Pantry - Northwest Activity Center,42.4230712,-83.1690272,1.0,0.0,0.5,1.4999997750000338e-07,0.0,0.2203,0.0913978494623656,0.0
319,cmh3vq0hg0849yme93be5tm27,BCS Education Center,40.6967968,-73.9760706,1.0,0.125,0.5,1.149999827500026e-06,1.0,0.124,0.2849462365591398,10.0
320,clb1c0ku0029iun040hazvv5e,"St. Paul ""The Shepard's Table"" Food Pantry",39.8976326619704,-75.2515017374475,1.0,0.0,0.5,2.149999677500048e-06,0.6666666666666666,0.21,0.043010752688172046,20.0
321,953,Safe Horizon,40.7037585,-73.7978388,1.0,0.0,0.5,1.4999997750000338e-07,0.0,0.1773,0.3763440860215054,0.0
322,ckxexc1mx08370413bymh6jh8,Corona Comunidad Fridge,40.7459116,-73.8593863,0.0,0.0,0.5,6.1499990775001386e-06,0.0,0.1775,0.24193548387096775,60.0
323,cma7rcm7q00cqtx2syo7gkv4h,CHASI MFP - Jersey St. & Hendricks Avenue,40.6398776,-74.0873529,1.0,0.0,0.5,1.149999827500026e-06,0.6666666666666666,0.1336,0.22580645161290322,10.0
324,cleity0s7001dme0fi083nclr,St. Luke ,39.9537358,-74.1979458,1.0,0.0,0.5,4.499999325000101e-07,0.7777777777777767,0.0473,0.06451612903225806,3.0
325,ckym5z0nj778733nzykc6zcoru,Norris Homes Food Pantry,39.9812735,-75.151665,1.0,0.0,0.5,1.4999997750000338e-07,0.0,0.346,0.8548387096774194,0.0
326,clihtbkwo0d94o70hm3m0nycx,Salvation Army Emergency Shelter,27.7562847,-82.6377255,1.0,0.0,0.5,2.6499996025000595e-06,0.9166666666666666,0.1288,0.10752688172043011,25.0
327,clhjr3s9j073xqd0hnd45yxps,Mt Vernon AME Church,39.9721574,-82.9717037,1.0,0.0,0.5,1.4999997750000338e-07,0.0,0.2045,0.15591397849462366,0.0
328,cldo28kyc023rz304rbt1dtit,Kingdom Restoration Ministries,40.0331678707606,-75.1367095183287,1.0,0.0,0.5,2.149999677500048e-06,0.0,0.4617,0.3924731182795699,20.0
329,cm475q9qi007to6wk8619bi1v,Neighborhood Health,40.5994478,-74.4560837,1.0,0.0,0.5,1.149999827500026e-06,0.6,0.2142,0.06989247311827956,10.0
330,clp2qfozl09j2qm8h6zidueym,Dimock Center / Sewall Building Parking Lot,42.319188,-71.096273,1.0,0.0,0.5,1.4999997750000338e-07,0.6666666666666666,0.334,0.3709677419354839,0.0
331,clubl64p00tv8zm6s4a8m20qi,North Tampa Church of Christ / Messengers of Hope,28.1706518,-82.4109847,1.0,0.0,0.5,1.4999997750000338e-07,1.0,0.0396,0.0,0.0
332,cli4y1rjt03rrvy02u7q29paj,"Dunedin Cares, Inc.",28.027652,-82.7724255,1.0,0.0,0.5,1.149999827500026e-06,0.9,0.0659,0.0,10.0
333,cleejzztg0056ml0fyfz2dw87,Abundant Life Christian Fellowship,40.2502191,-74.7816486,1.0,0.0,0.5,3.149999527500071e-06,0.6666666666666666,0.1238,0.11290322580645161,30.0
334,cleij6r2i0000ju0fw6ycrslo,Living Word Bible Fellowship Church,39.8410779,-75.0516732,1.0,0.0,0.5,2.399999640000054e-06,1.0,0.0642,0.021505376344086023,22.5
335,ckykb6v09030904yw7cu7gdd7,Haitian Evangelical Baptist Church,40.0456325,-75.1639777,1.0,0.0,0.5,6.1499990775001386e-06,0.3333333333333333,0.23,0.44086021505376344,60.0
336,cljnf9i3j02z7mq0hpnywef79,St. Paul's Lutheran Church,40.5142179,-74.3824807,1.0,0.0,0.5,1.149999827500026e-06,0.7333333333333334,0.0341,0.021505376344086023,10.0
337,cm3rgzth600wxs296ia4v2j21,Hearts United for Good,35.2501471,-80.8116801,1.0,0.0,0.5,1.4999997750000338e-07,1.0,0.2681,0.03763440860215054,0.0
338,cmj1injzk04q92dh32ts2ctmf,Public Health Solutions Wic Center,40.7041763,-73.7997957,1.0,0.0,0.5,1.4999997750000338e-07,0.3333333333333333,0.1773,0.3655913978494624,0.0
339,ckypexf5a117713yyp2c2uvlbg,Lombard Central Presbyterian Church,39.9591628,-75.2068593,1.0,0.0,0.5,1.4999997750000338e-07,0.6666666666666666,0.2796,0.5483870967741935,0.0
340,1457,Redhook Gospel Tabernacle,40.674725,-74.013138,1.0,0.0,0.5,2.149999677500048e-06,0.8333333333333334,0.0838,0.04838709677419355,20.0
341,clhl0lcdf014dmb0hs67pyb8b,Meal – Amazing Grace,39.9582328,-83.0349419,1.0,0.0,0.5,1.4999997750000338e-07,0.0,0.6005,0.12903225806451613,0.0
342,cli4y1pg103orvy02nzuyqf7h,FEAST Inc,28.0800931,-82.7446222,1.0,0.0,0.5,6.499999025000147e-07,0.9814814814814801,0.1064,0.005376344086021506,5.0
343,clr6pa1w31xrz1gs8t9xx1qhd,Asa G. Hilliard Elementary School,33.6644429,-84.4788669,1.0,0.0,0.5,1.649999752500037e-06,0.8666666666666667,0.096,0.010752688172043012,15.0
344,cmffldbi500vpx7ec11mxfndq,Jesus is Lord Fellowship,40.0381127,-74.2351688,1.0,0.0,0.5,5.499999175000124e-07,0.5555555555555567,0.1293,0.005376344086021506,4.0
345,cleccphb20014mn0fm4hj19nt,St. Andrew by the Sea Lutheran Church,39.3668665,-74.4243958,1.0,0.0,0.5,6.1499990775001386e-06,0.8888888888888901,0.322,0.14516129032258066,60.0
346,cmir1htf100ywzqcriqrrzpyu,New Tabernacle Baptist Church,40.8439315,-73.8787979,1.0,0.0,0.5,6.049999092500136e-06,0.6666666666666666,0.5187,0.3279569892473118,59.0
347,cmbs21cgd05miux0w18tq72rq,CUMAC MFP - Prospect Park Municipal Building,40.9347872947164,-74.1735500418108,1.0,0.0,0.5,1.149999827500026e-06,0.75,0.1715,0.15591397849462366,10.0
348,clb1c0q1r02y0un04e7bxgyn6,ICNA Relief USA Coney Island Pantry (Quba),40.633789,-73.964116,1.0,0.0,0.5,1.149999827500026e-06,0.6190476190476201,0.1634,0.2849462365591398,10.0
349,570,Jewish Community Council (JCC) of Canarsie 1,40.651503,-73.8856834,1.0,0.0,0.5,1.4999997750000338e-07,0.0,0.1802,0.16129032258064516,0.0
350,cmjg3t9zo01fj28fo5hqfg4f0,The Online Food Pantry,33.5189387,-84.3634783,0.0,0.0,0.5,1.4999997750000338e-07,0.7333333333333334,0.3725,0.03225806451612903,0.0
351,ckxz77tvb005304z64go44gfw,Clear-Way Baptist Church,40.7279,-74.20865,1.0,0.0,0.5,1.149999827500026e-06,0.7999999999999999,0.3292,0.7419354838709677,10.0
352,cky9r43lb257003q0yp2n3ifk7,Philabundance,39.9026177,-75.156694,1.0,0.0,0.5,1.649999752500037e-06,0.0,0.0,0.043010752688172046,15.0
353,cmh0yx1ja01py0qe8h8qq6atb,Woodlawn UMC - The Bulb,35.1737755,-80.8671841,1.0,0.125,0.5,2.149999677500048e-06,1.0,0.1232,0.010752688172043012,20.0
354,cm79758a300fm0w0uyweb81cb,Faith Wesleyan Church,28.0875549,-81.9566425,1.0,0.0,0.5,2.6499996025000595e-06,0.8571428571428567,0.1977,0.005376344086021506,25.0
355,cmh27l4x400o31geovyu15hy0,Garinger High School - The Bulb,35.2386359,-80.7827396,1.0,0.125,0.5,1.149999827500026e-06,0.8333333333333334,0.175,0.053763440860215055,10.0
356,cmg5dgmrk1gt2wzfmn1thy5nd,Westchester Square Masjid Al-Aqsa,40.8398014,-73.8467568,1.0,0.0,0.5,1.149999827500026e-06,0.5,0.2188,0.16129032258064516,10.0
357,cmir2gdq1015p3qcrvoyy5fuy,Bronx Jewish Community,40.855341,-73.8659975,1.0,0.0,0.5,6.499999025000147e-07,0.8333333333333334,0.1121,0.10215053763440861,5.0
358,cm9nr6e5i006vsz2njk5b56si,Community Congregational Church,38.856483,-104.913864,1.0,0.0,0.5,1.4999997750000338e-07,0.0,0.0728,0.010752688172043012,0.0
359,clxxld4pc055913pshcx6zfhl,A GRATEFUL MIND INTERNATIONAL @ Meals on Wheels for the Homeless,33.9749203,-83.9929371,1.0,0.0,0.5,1.4999997750000338e-07,0.0,0.3073,0.005376344086021506,0.0
360,ckyscnyom286013zune9miavn9,Human Needs Food Pantry,40.8180582,-74.2115585,1.0,0.0,0.5,2.9499995575000663e-06,0.8125,0.0893,0.07526881720430108,28.0
361,cl4nq9vlx046704xrb06bf3j1,Roxborough Christian School,40.0367775608059,-75.2186846764583,0.0,0.0,0.5,1.4999997750000338e-07,0.0,0.095,0.03763440860215054,0.0
362,clv5my7ma031cosnj6dem9647,Generation Of Hope Inc @ JenCare Senior Medical Center  (Mt. Zion Rd.),33.5708084,-84.3467283,1.0,0.0,0.5,1.4999997750000338e-07,0.3333333333333333,0.1627,0.021505376344086023,0.0
363,cllqmsnww00hjnm0iwdwsy1ci,Christland Community Outreach Center,42.4092569,-83.1719648,1.0,0.0,0.5,3.149999527500071e-06,0.3333333333333333,0.3929,0.06451612903225806,30.0
364,cmavbpfi301fn0w0v5aulyla0,"The Barnes Memorial Church, Inc",39.3255746,-76.5897199,1.0,0.0,0.5,1.149999827500026e-06,0.8333333333333334,0.1921,0.16129032258064516,10.0
365,clskproxk1pd11z7bot6zrppm,HUDA Clinic,42.3965362,-83.1101224,1.0,0.0,0.5,1.4999997750000338e-07,0.6666666666666666,0.3311,0.10215053763440861,0.0
366,cl4nq9vli038304xrjlpq8481,Playstreet 2000 N. Bambrey St.,39.9864088999826,-75.1754426000812,0.0,0.0,0.5,1.4999997750000338e-07,0.0,0.3734,0.7688172043010753,0.0
367,clifw2cka085gqm0hd2t99nmq,New Mt. Zion Missionary Baptist Church,27.9665231,-82.4310092,1.0,0.0,0.5,1.149999827500026e-06,0.8333333333333334,0.3852,0.14516129032258066,10.0
368,cli4y0e2q02fxvy02btwv0aii,St. Vincent de Paul @ St. Stephen Catholic Church,27.8524084,-82.2830243,0.0,0.0,0.5,1.4999997750000338e-07,0.6666666666666666,0.1192,0.005376344086021506,0.0
369,cmh8slji60pixzsfkj7me45tt,The Center for Family Resources,33.94178,-84.5094262,1.0,0.0,0.5,6.499999025000147e-07,0.7777777777777767,0.1295,0.005376344086021506,5.0
370,cmj79g97j00ha2qehsbwpnnr7,Highways And Hedges Church Of God,40.6687345,-73.9034198,1.0,0.0,0.5,1.149999827500026e-06,0.75,0.5839,0.553763440860215,10.0
371,cleejr2yg0000mo0fanyznl18,New Bethel Holy Church,40.2405976,-74.7674314,1.0,0.0,0.5,3.149999527500071e-06,0.6666666666666666,0.2645,0.24731182795698925,30.0
372,clih8w1lj0b7go70ht82tt8ez,Bread of Life Mt. Olive CDC,27.9692855,-82.7985352,1.0,0.0,0.5,1.4999997750000338e-07,0.7777777777777767,0.2252,0.0967741935483871,0.0
373,cm577xeze01ff1r0vgv1w876w,St. Ann's Corner of Harm Reduction - 139th St. and St. Ann’s Ave Mobile Food Pantry,40.8075111,-73.917021,0.0,0.0,0.5,1.4999997750000338e-07,1.0,0.3337,0.5,0.0
374,cleji2cs00000l50fdliea0m2,The Point Church,40.0491912,-74.9025236,1.0,0.0,0.5,1.4999997750000338e-07,0.0,0.2025,0.026881720430107527,0.0
375,cmfvi5b8h04hr02flrj5mr930,FFF/Revere League for Special Needs,42.4078912,-71.0132138,1.0,0.0,0.5,3.149999527500071e-06,0.75,0.0315,0.016129032258064516,30.0
376,cmeh97iom01r3ypfmxqhfrfzd,EHBB NYC @ Jefferson Consolidated Houses,40.7959951,-73.9380184,1.0,0.125,0.5,1.4999997750000338e-07,0.0,0.3875,0.44086021505376344,0.0
377,cm9nr6di8006jsz2n4py5loam,Black Forest Cares Food Pantry,39.011906,-104.699768,1.0,0.0,0.5,1.4999997750000338e-07,0.0,0.0152,0.0,0.0
378,451,Hebrew Union College-Jewish Institute of Religion,40.7287795,-73.9946946,0.0,0.0,0.5,1.4999997750000338e-07,0.0,0.0409,0.5161290322580645,0.0
379,ckz6jiwwh003004z62a6y014n,Cienfuegos Foundation Mobile Pantry ,40.8078149,-73.9204361,1.0,0.0,0.5,1.4999997750000338e-07,0.0,0.442,0.5913978494623656,0.0
380,cmhar7h6n0z0uzsfk6p27oari,"The Grace of God Prophetic Deliverance Ministries, Inc.",33.738486,-84.2576969,1.0,0.0,0.5,1.649999752500037e-06,1.0,0.0741,0.03225806451612903,15.0
381,cmgjwpg1z01n843egnzn4dr3s,El Bethel Church,27.9276346,-82.3692046,0.0,0.0,0.5,2.149999677500048e-06,0.9166666666666666,0.0938,0.043010752688172046,20.0
382,clh1rreju0008mq0fpavixd5p,Haven's Closet - Blue Haven,35.32055,-80.7732472,1.0,0.0,0.5,1.4999997750000338e-07,0.0,0.0343,0.005376344086021506,0.0
383,cluu13gqa01obd7wkhflmv2go,Mid-Ohio Market - Gantz Rd Choice Pantry,39.8802387,-83.0565251,1.0,0.0,0.5,3.149999527500071e-06,0.8796296296296301,0.0929,0.021505376344086023,30.0
384,cl4dq7c5l001204s0u9yow9kr,Beckett Life Center,39.97577,-75.161998,1.0,0.0,0.5,1.4999997750000338e-07,0.75,0.2755,0.7795698924731183,0.0
385,clg5b341l0000lc0fips8kuky,LMS Compassion Place at Fells Point Compassion Center,39.2857969,-76.5927872,1.0,0.0,0.5,3.149999527500071e-06,0.8333333333333334,0.1628,0.24193548387096775,30.0
386,cmcm4j4m900oa0z0xv9zebil7,Clementon Elementary School,39.8016603,-74.991559,0.0,0.0,0.5,1.4999997750000338e-07,0.0,0.0973,0.03763440860215054,0.0
387,cleicseoi0000li0fj1wchrvk,New Mercies Deliverance Church,39.8569,-75.0356427,1.0,0.0,0.5,1.4999997750000338e-07,0.5555555555555567,0.0364,0.05913978494623656,0.0
388,cle82eptl026j0d02u8gxdslr,Christ Embassy Maryland,38.9062728,-76.844098,1.0,0.0,0.5,1.4999997750000338e-07,0.7777777777777767,0.0784,0.03763440860215054,0.0
389,ckyoj2uk31064213lyn8vsuwrxc,"St Mary's Church, Hamilton Village",39.9525594,-75.2017021,0.0,0.0,0.5,1.4999997750000338e-07,0.0,0.328,0.5,0.0
390,914,Project FIND @ Clinton Older Adult Center,40.7682945,-73.9909152,0.0,0.0,0.5,1.4999997750000338e-07,0.0,0.2757,0.3010752688172043,0.0
391,cm9ve2wwu00b82l0v1ktyighx,Project Hospitality @ Shiloh Zion Church,40.6370473,-74.1185162,1.0,0.0,0.5,1.649999752500037e-06,0.5,0.2956,0.1935483870967742,15.0
392,cli61w20507x3lt0gtflc1nf5,Freedom Village III,27.9592057,-82.7902819,1.0,0.0,0.5,1.4999997750000338e-07,0.6666666666666666,0.1086,0.0967741935483871,0.0
393,cl4nq9vlv045704xra67bk2s1,Playstreet 1900 Wakeling St.,40.0159869999225,-75.0744266996322,0.0,0.0,0.5,1.4999997750000338e-07,0.0,0.4056,0.2849462365591398,0.0
394,clf78qh9p0002me0f87ruf44u,Daily Table Roxbury,42.3311587,-71.0832505,0.0,0.0,0.5,3.149999527500071e-06,0.3333333333333333,0.4148,0.3870967741935484,30.0
395,1498,Genesis Transitional House,40.684956,-73.754158,1.0,0.0,0.5,6.1499990775001386e-06,0.6666666666666666,0.0748,0.1881720430107527,60.0
396,cleg0yzgv0010mi0fwhrv52l8,St Ann's Church,39.9721926,-74.5822553,1.0,0.0,0.5,1.0499998425000236e-06,0.7333333333333334,0.1415,0.016129032258064516,9.0
397,cldmms7fd002rme0fhsdqijkr,GBCGAC Chinatown Quincy Tower,42.3484221,-71.0641969,0.0,0.0,0.5,1.4999997750000338e-07,0.0,0.1348,0.25268817204301075,0.0
398,ckygtld99002204wu018mssx1,Iglesia Evangelica Ministerio De Restauracion,40.653336,-74.188291,1.0,0.0,0.5,1.4999997750000338e-07,0.0,0.2528,0.21505376344086022,0.0
399,cmk471l490ll80zfrn8xgdam8,LindaBen Foundation,39.0259781,-76.9082588,0.0,0.0,0.5,1.4999997750000338e-07,0.0,0.0906,0.010752688172043012,0.0
400,ckyenuvxl002d04vtauim6txc,East Orange Comm. Dev. Corp.,40.7644416,-74.220638,1.0,0.0,0.5,1.149999827500026e-06,0.0,0.1522,0.34946236559139787,10.0
401,543,"Grand Central Food Program, St. Mark's Place",40.7102958,-74.007457,0.0,0.0,0.5,6.1499990775001386e-06,0.0,0.0701,0.43010752688172044,60.0
402,clhm7c5fh04iws90hq23cr37h,Grove City Food Pantry,39.8816115,-83.0751242,1.0,0.0,0.5,3.149999527500071e-06,0.8666666666666667,0.0838,0.010752688172043012,30.0
403,cmcbhp3vw00p4yl2dbts4ff79,Community Service SDA,40.696667,-73.608185,1.0,0.0,0.5,1.4999997750000338e-07,0.0,0.0291,0.026881720430107527,0.0
404,cleghhsil000zl50f0838lo7t,Fellowship United Methodist Church,39.8794631,-75.0584264,1.0,0.0,0.5,1.4999997750000338e-07,0.9777777777777766,0.0445,0.03225806451612903,0.0
405,clg7wu5wl001gkx0fisq3c8wv,Metropolitan Baptist Church Pantry,38.9067476,-76.8388004,1.0,0.0,0.5,2.149999677500048e-06,0.6666666666666666,0.0784,0.03763440860215054,20.0
406,clhg4nqe3001sl60fk8rxw1t2,Crossroads World Ministries,39.9553937,-83.0288998,1.0,0.0,0.5,4.649999302500105e-06,1.0,0.4693,0.12903225806451613,45.0
407,cleep6ei90000jn0faffw3vu3,Lutheran Church of the Redeemed,40.2164894,-74.7632654,1.0,0.0,0.5,2.149999677500048e-06,0.8333333333333334,0.2382,0.41935483870967744,20.0
408,cl4nq9vlt044304xr385qpwmi,Playstreet Unit Blk N. Millick St.,39.9628444974073,-75.241946156715,0.0,0.0,0.5,1.4999997750000338e-07,0.0,0.1375,0.6397849462365591,0.0
409,1410,Open Door Outreach Ministry,40.691433,-73.927116,1.0,0.0,0.5,3.149999527500071e-06,0.8205128205128199,0.2902,0.6290322580645161,30.0
410,cl3e077qg017304vsgjo04dhz,Trinity Temple Community Development Center,40.815847,-74.210091,1.0,0.0,0.5,6.1499990775001386e-06,0.8333333333333334,0.1018,0.07526881720430108,60.0
411,cmg8dr0jc01xv0tfmnxxmzr7s,Bell Shoals Baptist ,27.9426103,-82.3945993,1.0,0.0,0.5,3.149999527500071e-06,0.75,0.2282,0.016129032258064516,30.0
412,cmbp8cm86027g1i0x0xqtdixo,Beulah SDA Church,40.9004371,-73.8382396,1.0,0.0,0.5,2.149999677500048e-06,0.8333333333333334,0.2062,0.15053763440860216,20.0
413,ckzrz4is9000504wgyzdvgp0v,Harlem Dowling-West Side Center for Children & Family Services,40.8102,-73.947121,0.0,0.0,0.5,7.649998852500171e-06,0.6666666666666666,0.2997,0.6397849462365591,75.0
414,clikn7olm0lz6qm0h376iohyr,Ascension Lutheran Soup Kitchen,35.2086772,-80.8394805,0.0,0.0,0.5,1.4999997750000338e-07,0.0,0.1714,0.03763440860215054,0.0
415,cljn1t1zn00t3pc0hk56grmsr,United Community Corporation,40.7417777,-74.1674384,0.0,0.0,0.5,1.149999827500026e-06,0.5,0.2493,0.5268817204301075,10.0
416,cldlta3sk0000le0fzipe7zbd,Quincy Community Action,42.2423816,-71.0161146,1.0,0.0,0.5,1.4999997750000338e-07,0.9444444444444433,0.1151,0.016129032258064516,0.0
417,cmcbhp0u900n5yl2d41sxbe9p,"St. Martin of Tours Outreach, Amityville",40.677814,-73.416344,1.0,0.0,0.5,6.499999025000147e-07,0.6666666666666666,0.096,0.0,5.0
418,clo683rj201uvtb0f7k0cxxc5,CITY RELIEF/GOOD SHEPHERD MISSION ,40.9182653,-74.1603745,1.0,0.0,0.5,6.499999025000147e-07,0.6666666666666666,0.2284,0.34946236559139787,5.0
419,clflaaoim0000l20fpu2bw19a,Oak Square YMCA,42.3508658,-71.1671779,1.0,0.0,0.5,1.4999997750000338e-07,0.6666666666666666,0.1483,0.016129032258064516,0.0
420,cli99788x02oyt50ha0n5m5p6,Pleasant Grove Food,39.2829776,-76.6823152,1.0,0.0,0.5,1.149999827500026e-06,0.4444444444444433,0.1156,0.08064516129032258,10.0
421,clehokupw0002mi0folnu7gv7,Society of Saint Vincent de Paul -- Saint Charles Borromeo Parish Conference,39.7414344,-75.0345676,1.0,0.0,0.5,1.999999700000045e-07,0.6666666666666666,0.0598,0.016129032258064516,0.5
422,clg6a95ty0000lc0fb5oxo5zi,Koinonia Baptist Church,39.3436394,-76.5444579,1.0,0.125,0.5,1.149999827500026e-06,0.8666666666666667,0.139,0.053763440860215055,10.0
423,clecdbyeu001dlf0fgicevvnv,Community Church of the Nazarene - Beyond Our Doors Food Pan,39.3695701,-74.5669009,1.0,0.0,0.5,1.149999827500026e-06,0.8333333333333334,0.0594,0.005376344086021506,10.0
424,clc1h5iz000uvzy04pscl9m9b, Old First Church,39.9537640959331,-75.1462040327961,0.0,0.0,0.5,1.4999997750000338e-07,1.0,0.067,0.41935483870967744,0.0
425,cljswei9y002qnq0hb9rgadje,Dukeland Development,39.3017591,-76.6698054,1.0,0.0,0.5,1.4999997750000338e-07,0.0,0.1711,0.13978494623655913,0.0
426,cm0oaygt301yxlk2uauy75j3q,Mending the Gap,33.9614892,-84.0091601,1.0,0.0,0.5,1.4999997750000338e-07,0.7777777777777767,0.0802,0.016129032258064516,0.0
427,clibyi2m10fdbt50hx9h6rt3d,COUNTRYSIDE BAPTIST CHURCH,28.0148691,-82.7082203,1.0,0.0,0.5,1.4999997750000338e-07,0.8095238095238101,0.0312,0.010752688172043012,0.0
428,cmhm39we81015w0eaqqzuxalo,"New Day Church of the Nazarene, Inc",33.5219038,-84.4253823,1.0,0.0,0.5,1.4999997750000338e-07,0.6666666666666666,0.193,0.010752688172043012,0.0
429,cmbvrua2c00r2wb2mo57kf8zx,Cog of the First Born 7th day,40.676113,-73.587036,1.0,0.0,0.5,1.4999997750000338e-07,0.0,0.1174,0.043010752688172046,0.0
430,clj4vx4kg02uhml0hjqide6sv,Smithfield Food Pantry ,44.6366962,-69.8259677,1.0,0.0,0.5,1.4999997750000338e-07,0.0,0.1156,0.0,0.0
431,cllqnnzzb00mzmx0gdjf9mm2h,Tabernacle Missionary Baptist Church,42.3567225,-83.1077648,1.0,0.0,0.5,1.4999997750000338e-07,0.0,0.6185,0.08064516129032258,0.0
432,cmhc1py3l04m1yne88kr5moqb,First St Peter AME Church,33.7664447,-84.2234283,1.0,0.0,0.5,6.499999025000147e-07,0.9166666666666666,0.2201,0.010752688172043012,5.0
433,cmbv36fxa00qj500v11vfie3r,Coalition for the Homeless,40.8025311,-73.9356748,0.0,0.0,0.5,1.4999997750000338e-07,0.0,0.3265,0.6559139784946236,0.0
434,clgg1lwrb0000l80fn8u05oq6,Johnston Square Community Development,39.3026367,-76.6051178,1.0,0.0,0.5,1.649999752500037e-06,0.5555555555555567,0.2797,0.43548387096774194,15.0
435,cldl7c5ok02efyj04qc80z629,Bebashi Food Pantry,39.9478975,-75.2060836,1.0,0.0,0.5,3.149999527500071e-06,0.8888888888888901,0.146,0.543010752688172,30.0
436,cle82fuq104f60d026is01aez,Fairmont Gardens Apartments,38.836461,-77.203813,1.0,0.0,0.5,3.149999527500071e-06,0.7083333333333334,0.1263,0.016129032258064516,30.0
437,ckyf0wi2v163173nyd7ji2y1us,Chosen 300,39.9614174,-75.1569069,0.0,0.0,0.5,2.149999677500048e-06,0.8787878787878799,0.2058,0.5806451612903226,20.0
438,cl55nja632604384gyslmy7f3oy,NYMJC HELP CENTER,40.6115364,-74.088184,1.0,0.0,0.0,3.149999527500071e-06,0.7222222222222233,0.1615,0.14516129032258066,30.0
439,ckymj83ml1013703nzyt77wt564,Pentecostal Church Of God,39.9973219,-75.1389466,1.0,0.0,0.5,2.6499996025000595e-06,0.7999999999999999,0.4387,0.7365591397849462,25.0
440,cleiz4xku007zjv0f1stm6v38,St. Paul’s United Methodist Church,39.8411487,-75.1968752,1.0,0.0,0.5,1.149999827500026e-06,0.9411764705882367,0.1118,0.005376344086021506,10.0
441,ckypn9odc359473yypjqwjzfod,Evangel Christian Church,40.8510966,-74.0398121,1.0,0.0,0.5,2.399999640000054e-06,0.6666666666666666,0.0989,0.04838709677419355,22.5
442,ckxexc1k302950413vff4d35w,Catholic Charities Brooklyn and Queens / Northeast Queens,40.7092343,-73.778395,0.0,0.0,0.5,3.014999547750068e-05,0.0,0.2027,0.3817204301075269,300.0
443,cm8x7ehpj03hu1h0vbx5eif2v,AFB BROOKLYN & ONE FAITH INC,40.6589012,-73.9270361,1.0,0.0,0.5,3.149999527500071e-06,0.8888888888888901,0.1655,0.4946236559139785,30.0
444,cml6opa6d01iv5gehtv5i01w7,Table of Hope at Liquid Church,40.8560562,-74.4164716,1.0,0.0,0.5,1.4999997750000338e-07,0.0,0.0282,0.021505376344086023,0.0
445,cleu96wnc0000mk0f6y4mujn8,Camden County Board of Social Service,39.8720342,-75.0076318,0.0,0.0,0.5,1.149999827500026e-06,0.6666666666666666,0.043,0.010752688172043012,10.0
446,clg4o1f3i001sjl0fstz9125v,Agape Christian Church,39.4455692,-76.62095,1.0,0.0,0.5,1.8999997150000427e-06,0.8055555555555567,0.0444,0.016129032258064516,17.5
447,cm8q0jhba03iizz0v6d3ojyth,Love Wins Food Pantry @ Brooklyn Community Pride Center,40.6688804,-73.955368,1.0,0.0,0.5,1.7999997300000404e-06,0.8333333333333334,0.1766,0.44086021505376344,16.5
448,clp7b2pxi0n3aqm8hufmw9lyn,ABCD Food Pop-Up,42.2861239,-71.1302529,1.0,0.0,0.5,1.4999997750000338e-07,0.5,0.0816,0.06451612903225806,0.0
449,clekg1wg60002jy0fcjau2xca,Open Arms Food Pantry at Jackson Baptist Church,40.1164674,-74.3140661,1.0,0.0,0.5,1.4999997750000338e-07,0.9047619047619033,0.0157,0.0,0.0
450,cm7p5mvhn01o0xc0wcaqd9qcn,Wholesome Riches @ Dudley School,39.944911,-75.0929805,1.0,0.0,0.5,3.149999527500071e-06,0.8571428571428567,0.3303,0.23118279569892472,30.0
451,clsldvjaq00d73rbm1af5ceut,We Are Not Afraid Community Resource Center Polo Grounds,40.830784,-73.937332,1.0,0.0,0.5,3.149999527500071e-06,0.6666666666666666,0.3989,0.43010752688172044,30.0
452,clejlkwbs0000l60fusxq21ku,Catholic Charities,39.7266245,-75.4728004,1.0,0.0,0.5,1.4999997750000338e-07,0.0,0.4714,0.06989247311827956,0.0
453,cleevvtdm002cml0fmo8k9604,Revival Center of Woodbury,39.8499494,-75.1422038,1.0,0.0,0.5,1.4999997750000338e-07,0.8333333333333334,0.1816,0.053763440860215055,0.0
454,cmke8gzgz035fvyflleqqi49m,Neighborhood Care Harlem,40.8096896,-73.9488864,1.0,0.0,0.5,1.4999997750000338e-07,0.0,0.303,0.6129032258064516,0.0
455,cldp3s5r6000xmo0f28hcmbrr,Bethel Hispanic Seventh Day Adventist Church,42.2949433,-71.0613617,1.0,0.0,0.5,9.999998500000225e-07,0.8888888888888901,0.178,0.17204301075268819,8.5
456,cldp63on7001vmj0f85jcw9vx,Jewish Family & Children’s Services ,42.3759151,-71.2719228,1.0,0.0,0.5,1.4999997750000338e-07,0.8333333333333334,0.055,0.005376344086021506,0.0
457,ckyns7rzu152523lynqa0pv7rn,Transfiguration Baptist Church,39.9655361,-75.1976046,1.0,0.0,0.5,1.4999997750000338e-07,0.0,0.4868,0.44086021505376344,0.0
458,cmg59tntb06vd2hfmsvc8up04,Masjid Abu-Huraira,40.7586359,-73.88957,1.0,0.0,0.5,7.649998852500171e-06,0.8333333333333334,0.0468,0.23655913978494625,75.0
459,clek5ofbi000mmf0fxea1xyzj,St. Johns' Community Meals,40.4259794,-74.1932605,1.0,0.0,0.5,3.149999527500071e-06,0.9444444444444433,0.0373,0.026881720430107527,30.0
460,cli4y0kku02n9vy02btrxic4r,Fellowship Baptist Community Food Pantry,27.9836329,-82.2756468,0.0,0.0,0.5,1.4999997750000338e-07,0.0,0.0413,0.016129032258064516,0.0
461,cm5xhulnh005it0283a9xlh7s, First Presbyterian Church of Dunellen,40.5946342,-74.4637818,1.0,0.0,0.5,2.149999677500048e-06,0.8787878787878799,0.1994,0.05913978494623656,20.0
462,cm8rkbzs701dc3x0wkila4diy,Unify Detroit/St. Clare Montefalco,42.3951444,-82.9218915,1.0,0.0,0.5,1.4999997750000338e-07,0.0,0.0267,0.0,0.0
463,cle8sji840000mk0fs5nha4ae,First Presbyterian Church,40.4848015,-74.2818903,1.0,0.0,0.5,1.4999997750000338e-07,0.6666666666666666,0.0922,0.021505376344086023,0.0
464,cldncycqa0000l50fw3vw1sj0,Watertown Community Fridge,42.3672148,-71.1811997,0.0,0.0,0.5,1.649999752500037e-06,0.8333333333333334,0.0833,0.010752688172043012,15.0
465,cldnb0bya0003mn0gym367fiq,Our Lady of Lourdes,42.3132312,-71.1023891,1.0,0.0,0.5,6.499999025000147e-07,0.6666666666666666,0.1079,0.27956989247311825,5.0
466,298,"DreamCenterNYC, Fulton Houses",40.7431615,-74.0046688,1.0,0.0,0.5,3.149999527500071e-06,0.8333333333333334,0.178,0.3172043010752688,30.0
467,978,Project Hospitality- Vanderbilt,40.618507,-74.080902,1.0,0.0,0.5,1.4999997750000338e-07,0.0,0.3223,0.1989247311827957,0.0
468,cli4y26dj049pvy02zhytqazw,Champion's Lair,28.0147874,-82.116955,1.0,0.0,0.5,1.4999997750000338e-07,0.0,0.2757,0.05913978494623656,0.0
469,cm9mbr3nj00ssym2ly5ffd1uo,Times of Refreshing Church,38.683285,-104.70192,1.0,0.0,0.5,1.4999997750000338e-07,0.0,0.166,0.010752688172043012,0.0
470,cm3n6yki800ffrmgvnx861lih,Transcend Outreach,40.725091,-74.2217414,0.0,0.0,0.5,1.4999997750000338e-07,0.0,0.1774,0.5967741935483871,0.0
471,clehowk7x0002l70fjmzs9s4n,Lion of Judah Church – Bread of Life,39.8510148821468,-75.0249427612016,1.0,0.0,0.5,3.149999527500071e-06,0.9166666666666666,0.194,0.05913978494623656,30.0
472,cm4yh92yr00mz450v1cw4jhpn,Revival Tabernacle,42.4164863,-83.1046596,1.0,0.0,0.5,1.4999997750000338e-07,0.0,0.2981,0.04838709677419355,0.0
473,cmj1nd84w0bs14veclaikak8q,Catherine Sheridan Senior Center,40.7510318,-73.883874,1.0,0.0,0.5,1.4999997750000338e-07,0.0,0.1292,0.3010752688172043,0.0
474,cmj2w4jy806wuxeefb2js64z2,Bethel Mission charity organization,40.6959766,-73.7993668,1.0,0.0,0.5,1.4999997750000338e-07,0.0,0.0651,0.3655913978494624,0.0
475,cmhkkvooq1bnazjecc99o2igv,Faith Deliverance Christian Church,33.5813863,-84.324333,1.0,0.0,0.5,6.499999025000147e-07,0.8095238095238101,0.1668,0.021505376344086023,5.0
476,cly5ddusw01xi6f1maqt0jfg8,Maranatha French SDA Church,40.6929808,-73.7737233,1.0,0.0,0.5,1.649999752500037e-06,0.8888888888888901,0.0607,0.27419354838709675,15.0
477,cllop5jkx01lb2jkhd34dh2m8,Christ Church of Redford,42.3911068,-83.2778853,1.0,0.0,0.5,1.3999997900000316e-06,0.8571428571428567,0.0589,0.021505376344086023,12.5
478,cldndiljf0000jy0f9hh0a1dk,ABCD Allston/Brighton Neighborhood Opportunity Center ,42.3506927,-71.1692242,1.0,0.0,0.5,3.99999940000009e-07,0.6666666666666666,0.0886,0.016129032258064516,2.5
479,cle9snuhx0000mn0f0l70knnj,Your Grandmother’s Cupboard,39.9660952,-74.2229385,1.0,0.0,0.5,3.149999527500071e-06,0.5555555555555567,0.0827,0.03763440860215054,30.0
480,cli4y20vb0443vy02vbtultd4,New Bethel Lakeland Social Services,28.0601829,-81.9613897,1.0,0.0,0.5,1.149999827500026e-06,0.6666666666666666,0.1677,0.053763440860215055,10.0
481,clikr5mid0mteqm0heuanwmkl,Greater Mt. Sinai,35.2164791,-80.8778043,1.0,0.0,0.5,1.4999997750000338e-07,0.0,0.0969,0.043010752688172046,0.0
482,ckyplcx91260853yyp42n7khlw,St Catharine’s Food Pantry,40.9557291,-74.1314282,1.0,0.0,0.5,6.499999025000147e-07,0.7777777777777767,0.0249,0.03763440860215054,5.0
483,ckyheb6yb365613q18ct6i5za0,Friends Rehabilitation Program: Guild House West,39.9668175,-75.1575093,1.0,0.0,0.5,1.4999997750000338e-07,0.8666666666666667,0.3476,0.6397849462365591,0.0
484,1551,Issacs Center,40.7812666,-73.9450749,0.0,0.0,0.5,3.499999475000079e-07,1.0,0.2122,0.22043010752688172,2.0
485,clizs2tb6083co30h3lsku4c9,Church of Epiphany (Helping Hands Ministry),40.1126074,-74.1093246,1.0,0.0,0.5,3.149999527500071e-06,0.8888888888888901,0.0398,0.010752688172043012,30.0
486,ckyzl6zik2840113o1dzi811sr7,Soup Kitchen at St. Josephs Church in Greenwich Village,40.734504,-73.995177,0.0,0.0,0.5,1.4999997750000338e-07,0.0,0.0431,0.46236559139784944,0.0
487,clhhtg2t50038jt0fpfrcmyt6,New Life Church,39.9653512,-82.8863951,0.0,0.0,0.5,1.4999997750000338e-07,0.0,0.1715,0.021505376344086023,0.0
488,ckxz0a2fc609540rrk424tkoc,The People’s Fridge,39.9574365,-75.2250229,0.0,0.0,0.5,1.4999997750000338e-07,0.0,0.3004,0.7795698924731183,0.0
489,cleewxa9e002rju0fofabu5fv,St. Matthew's Baptist Church - Community Development Center,39.6843268,-74.9999584,1.0,0.0,0.5,1.149999827500026e-06,0.8787878787878799,0.0743,0.053763440860215055,10.0
490,cl4xqcxux008404uw4yi81ilg,Mighty Writers at South Philadelphia High School,39.9237067277162,-75.1688780054305,1.0,0.0,0.5,2.499999625000056e-07,0.0,0.2085,0.44086021505376344,1.0
491,ckytvew06301993hvs7yeg5b1o,St. Peter's Food Pantry,40.864477,-74.3942088,1.0,0.0,0.5,1.4999997750000338e-07,1.0,0.2159,0.021505376344086023,0.0
492,cmhc1o23z04bwz3e85acly613,St. Mark Lutheran Church,33.6428341,-84.4903645,1.0,0.0,0.5,3.149999527500071e-06,0.7142857142857134,0.3196,0.016129032258064516,30.0
493,cm4xbj5fc019s120vvesdlci2,Community Kitchen (of St. John’s Catholic),39.9521457,-82.9709713,0.0,0.0,0.5,5.999999100000135e-07,0.6666666666666666,0.3169,0.13978494623655913,4.5
494,clzqyi6la2k44jtpyqiz2lbv5,Crystal Lake Elementary,28.0346913,-81.9118875,1.0,0.0,0.5,1.0149998477500229e-05,0.7037037037037033,0.2073,0.0,100.0
495,cl6d67xxa068504wyu5qt9c7w,Gideon School,39.9843399898756,-75.1805905188846,0.0,0.0,0.5,1.4999997750000338e-07,0.8947368421052633,0.3734,0.6612903225806451,0.0
496,ckyv3mdh2980393kwapzs74ush,WAFAA - Women and Family Ascending Association,40.9221683,-74.1921748,1.0,0.0,0.5,1.4999997750000338e-07,0.0,0.2667,0.17204301075268819,0.0
497,cmixajwjc0etzyweb6htktkwv,Carolina United Volleyball Club ,35.1428526,-80.9363497,1.0,0.0,0.5,1.4999997750000338e-07,0.0,0.0482,0.0,0.0
498,cmh9bjyal063k06fku4l428q2,"Foundation of Miracles, Inc.",33.763696,-84.3774324,1.0,0.0,0.5,1.4999997750000338e-07,0.8333333333333334,0.0772,0.08602150537634409,0.0
499,cli4y1po703p3vy02xx08zr6x,Grace & Mercy Food Pantry Church of Christ,27.7748973,-82.6845841,1.0,0.0,0.5,1.649999752500037e-06,0.8148148148148134,0.0878,0.06989247311827956,15.0
500,cm6zfwgpr0fq7060u8sxxyczk,East Orange Family Success Center,40.7634906,-74.2228059,1.0,0.125,1.0,9.999998500000225e-07,1.0,0.1522,0.3602150537634409,8.5
501,cmgqsl9xe0bbsymebzq1j9k6x,Grace family Church - Kinship Free Market,27.8944029,-82.5209503,1.0,0.0,0.5,3.149999527500071e-06,0.9259259259259266,0.1124,0.026881720430107527,30.0
502,clr85u9la0e5kn7hj9qlxt15r,The M.I.M.S Inc.,33.572583,-84.358321,1.0,0.0,0.5,3.149999527500071e-06,0.5555555555555567,0.2648,0.026881720430107527,30.0
503,cmhkmvaq51cgh3bcqovnpidxr,Ellenwood Oaks Community Church,33.6286494,-84.2199959,1.0,0.0,0.5,1.4999997750000338e-07,0.0,0.1011,0.0,0.0
504,clei5dope0000mu0fwleq7rps,SVdP - Our Lady of Guadalupe,40.0896968,-74.2157852,1.0,0.0,0.5,1.149999827500026e-06,1.0,0.4447,0.11290322580645161,10.0
505,cmg56whqt07tc2sib5wowhwul,New Lots Islamic Center,40.6659852,-73.8850683,1.0,0.0,0.5,5.499999175000124e-07,0.8888888888888901,0.2258,0.3817204301075269,4.0
506,clefch5vd0000ju0f49sdedp4,Beverly Methodist Church - Meal Of Love,40.0656982,-74.9161048,1.0,0.0,0.5,6.499999025000147e-07,0.6666666666666666,0.1483,0.016129032258064516,5.0
507,cldojthcd0000mu0f8v6o6q0f,First Church in Cambridge,42.3766164,-71.1229945,0.0,0.0,0.5,1.4999997750000338e-07,0.0,0.0571,0.07526881720430108,0.0
508,clikt5g080n81qm0hd66aam0z,Palm River Community Health Center,27.9419378,-82.3712114,0.0,0.0,0.5,1.649999752500037e-06,0.8333333333333334,0.1873,0.026881720430107527,15.0
509,362,Department of Education Free Meals Food Truck,40.7702563,-73.8311312,0.0,0.0,0.5,1.4999997750000338e-07,0.0,0.2171,0.06451612903225806,0.0
510,cllqlp00200dunm0ijp6cxm9n,Detroit Department Of Human Services - Area G Center,42.366872,-83.0393844,1.0,0.0,0.5,6.499999025000147e-07,0.6666666666666666,0.235,0.04838709677419355,5.0
511,clhk5rw6q084os60hdja20pmy,Community Blessings Food Pantry,39.9298575,-82.9904019,1.0,0.0,0.5,3.6499994525000822e-06,0.5,0.1089,0.0913978494623656,35.0
512,505,Iglesia Segunda Mission Jerusalem,40.8719441,-73.8753985,1.0,0.0,0.5,1.649999752500037e-06,0.5555555555555567,0.2063,0.1935483870967742,15.0
513,1545,Church of St. Frances of Rome Food Pantry,40.8952973,-73.8533885,1.0,0.0,0.5,3.149999527500071e-06,0.8148148148148134,0.2501,0.1827956989247312,30.0
514,cli4y13fq03blvy02b04a7gr4,Calvary Church,27.9629281,-82.7091525,1.0,0.0,0.5,1.649999752500037e-06,0.8518518518518533,0.2395,0.010752688172043012,15.0
515,clg4o4qwb0000mj0foce9qn9d,Grace and Hope Mission – Food Pantry,39.2894664,-76.6091161,1.0,0.0,0.5,1.149999827500026e-06,0.75,0.1473,0.3225806451612903,10.0
516,clg91i63a0000me0f37jwzxz5,Perry Hall United Meth. Ch.,39.4094079,-76.4670127,1.0,0.0,0.5,3.499999475000079e-07,0.7777777777777767,0.0743,0.0,2.0
517,clb1c0kcg0278un041h3j3rlx,Norris Homes/North Central Community Center,39.9829399753166,-75.1517041284639,1.0,0.0,0.5,2.149999677500048e-06,0.84848484848485,0.346,0.8709677419354839,20.0
518,cle82frkv048x0d02mjpr4rc6,Washington Spanish SDA Church,39.062206,-76.999439,1.0,0.0,0.5,3.149999527500071e-06,0.7333333333333334,0.0457,0.026881720430107527,30.0
519,cmed2suzk008q6ke9mkbp2314,Newark Beth Israel Medical Center,40.7093586,-74.2125192,1.0,0.125,0.5,1.4999997750000338e-07,0.6666666666666666,0.1376,0.42473118279569894,0.0
520,cm727htl901821g0vrqx2ucpo,St. Camillus Food Pantry,40.583819,-73.8206628,1.0,0.0,0.5,1.4999997750000338e-07,0.74074074074074,0.2143,0.03763440860215054,0.0
521,cleeoys4o0002jv0fgvwihv8e,Princeton Deliverance Center,40.2266924,-74.7558843,1.0,0.0,0.5,1.4999997750000338e-07,0.6666666666666666,0.346,0.46774193548387094,0.0
522,cm66n1rwh00ccvt0wsv6995mr,Milford Baptist Church,33.8809798,-84.5837802,1.0,0.0,0.5,6.1499990775001386e-06,0.7333333333333334,0.0801,0.005376344086021506,60.0
523,cm2awhajt0301cn87ltl0o02f,mRelief SNAP Screener - Charlotte,35.2187848,-80.8373742,0.0,0.0,0.5,1.4999997750000338e-07,0.0,0.0,0.06989247311827956,0.0
524,cljj55jxk06g5l30h2tpfq3np,Smithfield Area Ministries,35.511849,-78.3480871,1.0,0.0,0.5,1.4999997750000338e-07,0.0,0.2676,0.026881720430107527,0.0
525,cllnrh4ru0085ob0h6v5pc9no,St. Patrick Senior Center,42.3485053,-83.0598385,0.0,0.0,0.5,1.4999997750000338e-07,0.0,0.1925,0.10215053763440861,0.0
526,clq1cgsdz0x7rwwmm6z0yhc6v,Kindom Cares / Windsor Court and Tower Apartments,39.0843084,-76.9424788,1.0,0.0,0.5,1.149999827500026e-06,0.6666666666666666,0.1841,0.021505376344086023,10.0
527,cm9mbr35f00sgym2lz9mpmoce,The Remnant Pantry (Grace Church of the Nazarene),38.803715,-104.8032,1.0,0.0,0.5,1.4999997750000338e-07,0.0,0.0688,0.010752688172043012,0.0
528,1042,Whosoever Will Baptist Church,40.8493141,-73.9209413,1.0,0.0,0.5,2.399999640000054e-06,0.0,0.6006,0.44623655913978494,22.5
529,ckxz77tv3004404z6csay1pqt,First Baptist Church of Clayton,39.6695,-75.0861,0.0,0.0,0.5,1.4999997750000338e-07,0.0,0.0796,0.03763440860215054,0.0
530,cmcfb324u00bg5w0v9ba12ges,"Seed Time Outreach, Inc",40.7252611,-74.2210414,1.0,0.0,0.5,1.649999752500037e-06,0.8333333333333334,0.1774,0.6129032258064516,15.0
531,cle82ezsk02ro0d02ne6bae6k,Springfield Christian Church,38.804249,-77.183469,1.0,0.0,0.5,1.149999827500026e-06,0.9523809523809533,0.0137,0.005376344086021506,10.0
532,clhf8rar5001rli0fa28df5y5,Mid-Ohio Kitchen at Reeb Community Meal,39.9251694,-82.9877026,0.0,0.0,0.5,1.999999700000045e-07,0.8888888888888901,0.427,0.08602150537634409,0.5
533,cliwzi5is0018mg0g7kqlsyy9,feednj @ Westminster Presbyterian Church,40.2239611,-74.738112,0.0,0.0,0.5,1.149999827500026e-06,0.3333333333333333,0.1557,0.27956989247311825,10.0
534,cldndtc7q0000jn0f2dpmmdqc,Brookline Food Pantry ,42.3497076,-71.1166572,1.0,0.0,0.5,4.499999325000101e-07,0.8333333333333334,0.2061,0.07526881720430108,3.0
535,cm57knudo028l1r0vw5f2ghug,Union Baptist Temple,39.3688987,-74.4273113,1.0,0.0,0.5,3.149999527500071e-06,0.8333333333333334,0.4715,0.16666666666666666,30.0
536,cmhuqj23h0hv7woco2q1q13zv,Elmwood Park Senior Activity Center,40.9005154,-74.1164753,1.0,0.0,0.5,1.4999997750000338e-07,0.8333333333333334,0.1831,0.03763440860215054,0.0
537,ckykcztx5903593vx0cqegq3l7,"Innovative Treatment Alternatives, Inc.",40.0398253,-75.1676941,1.0,0.0,0.5,1.4999997750000338e-07,0.0,0.23,0.4838709677419355,0.0
538,ckyvfuj481455663kwa0cp1bjjt,First Presbyterian Church of Iselin,40.5733152,-74.3227748,1.0,0.0,0.5,1.4999997750000338e-07,0.0,0.0265,0.016129032258064516,0.0
539,clekkws9g0000jz0g82y9zp9f,Hope's Crossing,40.0347007,-74.235912,1.0,0.0,0.5,1.149999827500026e-06,1.0,0.1293,0.005376344086021506,10.0
540,cliw83hy608pmqw0gmrk9nodu,Bethel World Outreach Ministries (TASK),40.2340162,-74.759149,0.0,0.0,0.5,1.4999997750000338e-07,0.6666666666666666,0.2643,0.3870967741935484,0.0
541,clecm32860000mb0fnoqmwd71,Browns Mill United Methodist Church Food Pantry,39.9729609,-74.5844518,1.0,0.0,0.5,2.499999625000056e-07,1.0,0.1415,0.016129032258064516,1.0
542,clejmjdg4002bl10fblgsv8kw,St. John's Pentecostal Outreach Church,39.5704934,-75.4674715,1.0,0.0,0.5,1.649999752500037e-06,0.8666666666666667,0.3431,0.05913978494623656,15.0
543,clj39qgpa07ojpn0gg5c4hzo7,"ST. LAWRENCE, SOCIETY OF ST. VINCENT DEPAUL FOOD PANTRY",40.4518113,-74.2487478,1.0,0.0,0.5,6.499999025000147e-07,0.9166666666666666,0.0457,0.010752688172043012,5.0
544,clhf9j04a001gmo0fdry9k540,New Life United Methodist Church,39.9868866,-83.0063152,0.0,0.0,0.5,6.949998957500157e-06,0.0,0.1726,0.043010752688172046,68.0
545,clgg3rgs00000l50f4fsybxjq,PTSA School #39 Food Pantry,39.3130678,-76.613648,1.0,0.0,0.5,1.4999997750000338e-07,0.0,0.2547,0.3870967741935484,0.0
546,cli4y1yq90413vy028j6sx1r1,Inspiration Ministries - Polk - Food Distribution Center,28.0138541,-81.9175515,1.0,0.0,0.5,1.149999827500026e-06,0.8055555555555567,0.0387,0.005376344086021506,10.0
547,cledeo0np000slc0f7hlky6h5,Lean On Me Agape Ministries,39.4864376,-75.0267967,1.0,0.0,0.5,1.4999997750000338e-07,0.0,0.131,0.10215053763440861,0.0
548,cled82lmj0000ky0fadw5ihlg,Jehovah Jireh Community Development,38.8249252,-77.0062142,1.0,0.0,0.5,1.149999827500026e-06,0.0,0.3073,0.06989247311827956,10.0
549,cm3yyu47908lfb8bogsxbgj01, New Birth Missionary Baptist Church,33.6989844,-84.1364319,1.0,0.0,0.5,6.1499990775001386e-06,1.0,0.2604,0.005376344086021506,60.0
550,ckxz77txb00a904z65ld0bzki,St Brigid's Food Pantry at St James Episcopal Church,40.2945,-73.99518,1.0,0.0,0.5,2.149999677500048e-06,0.8571428571428567,0.1637,0.053763440860215055,20.0
551,cm37rvv17057ct169q6q7ovwd,Iglesia Cristiana Emmanuel,40.7000858,-73.9250748,1.0,0.0,0.5,1.4999997750000338e-07,0.0,0.1209,0.4838709677419355,0.0
552,cmh29y8le01891geo2js5d8dw,Shamrock - The Bulb,35.2391585,-80.7750651,1.0,0.125,0.5,1.149999827500026e-06,0.75,0.3228,0.04838709677419355,10.0
553,cmir2ytjn011lygd09b7o9gs1,Heavenly Vision Christian Center - South Bronx,40.8697893,-73.8955943,1.0,0.0,0.5,1.149999827500026e-06,0.6666666666666666,0.0517,0.26344086021505375,10.0
554,cmi3l58x101zt1oe8c3efgyjw,Guru Seva Hidu Milan Mandir Cultural Group,40.8388693,-73.8261805,1.0,0.0,0.5,1.4999997750000338e-07,0.9166666666666666,0.0896,0.053763440860215055,0.0
555,cmhkj72rz1bz83bcqvlpb7gxf,Higher Ground Community Impact,33.7610042,-84.1933216,1.0,0.0,0.5,6.499999025000147e-07,0.8888888888888901,0.25,0.016129032258064516,5.0
556,ckxexc1mp074904137ybrs2nw,WCK State Senator Andrew Gounardes Office,40.6254414,-74.0244925,0.0,0.0,0.5,1.4999997750000338e-07,0.0,0.0828,0.10752688172043011,0.0
557,cm3iwv0w1058uxg09lr49j3im,Park United Methodist Church,40.7976678,-74.197638,1.0,0.0,0.5,1.149999827500026e-06,0.9333333333333332,0.1147,0.06451612903225806,10.0
558,clp8bvms50qj5qm8hysavntmi,Rose’s Bounty,42.2830525,-71.1502996,1.0,0.0,0.5,1.149999827500026e-06,1.0,0.0419,0.03225806451612903,10.0
559,clh35y9o00002lj0f61muq34p,Blessed Virgin Mary Church,39.9217456,-75.2638797,1.0,0.0,0.5,2.6499996025000595e-06,0.9333333333333332,0.2021,0.05913978494623656,25.0
560,cl0vzfvcd000204umb6yhzrmr,Unbreakable Courage Ministries,40.630497,-73.940865,1.0,0.0,0.5,1.4999997750000338e-07,0.6666666666666666,0.0562,0.27419354838709675,0.0
561,ckykb6v78055404yw4efv06ld,Rutgers University Scarlet Raptor Food Pantry,39.948664,-75.12263,1.0,0.0,0.5,1.4999997750000338e-07,0.0,0.2951,0.1989247311827957,0.0
562,cmh0ls26k04xuzvcqlpps3ppf,Holy Family Church,39.9589693,-83.0181786,0.0,0.0,0.5,1.4999997750000338e-07,0.0,0.4492,0.15053763440860216,0.0
563,cm92ypx56076v040v2xkqmbia,Temple University Community Garden Field,39.9846772,-75.1565578,1.0,0.0,0.5,6.1499990775001386e-06,0.5,0.346,0.956989247311828,60.0
564,cm4xgr4my01js0p0vbufm9rks,St. Philip the Apostle Catholic Church ,39.9422425,-82.8863924,1.0,0.0,0.5,1.4999997750000338e-07,0.0,0.3335,0.026881720430107527,0.0
565,clh1r2650001amc0fhnlu81zi,CAM - Crisis Assistance Ministry of Charlotte,35.2384169,-80.8375891,1.0,0.0,0.5,1.4999997750000338e-07,0.0,0.2681,0.08064516129032258,0.0
566,cle8giutn0000l20f6blmuv0r,Lakeview Seventh Day Adventist Church,33.8739725138123,-84.6717749345962,1.0,0.0,0.5,8.999998650000202e-07,0.8888888888888901,0.1373,0.005376344086021506,7.5
567,cmhknl8030d8910cszx89qa1o,Sunshine Community Brotherhood Foundation Stonecrest,33.7081012,-84.167494,1.0,0.0,0.5,1.149999827500026e-06,0.6666666666666666,0.123,0.010752688172043012,10.0
568,cljbts3ue010krs0hmz7uz1t6,Belmont Community Organization,35.24066,-81.0217111,1.0,0.0,0.5,1.4999997750000338e-07,0.8666666666666667,0.198,0.0,0.0
569,ckynewk8d4804983t2dmic2oruz,St. Michael's Lutheran Church,40.0515196,-75.1849298,0.0,0.0,0.5,1.149999827500026e-06,0.6666666666666666,0.1595,0.27419354838709675,10.0
570,cli6ao6qr06pzpi0gt9i29p6m,Chapel in the Pines,27.987033,-82.5656828,1.0,0.0,0.5,1.4999997750000338e-07,0.0,0.0782,0.026881720430107527,0.0
571,cle8u2dql0006l50fvb4ckd4b,Fulfill NJ Mobile pantry @ Jane Booker Pediatric,40.2154114,-74.0299204,1.0,0.0,0.5,1.4999997750000338e-07,0.8333333333333334,0.2353,0.1935483870967742,0.0
572,cle88bj3r0000mi0f6gbviag7,St Joseph Food Pantry,40.8751938,-74.0253761,1.0,0.0,0.5,2.499999625000056e-07,0.0,0.0523,0.08064516129032258,1.0
573,ckxz77tvc005f04z6d60dbuyo,St. Paul the Apostle Roman Catholic Church,40.50038,-74.42347,1.0,0.0,0.5,1.4999997750000338e-07,0.0,0.163,0.06451612903225806,0.0
574,cl6d67xbf029804wy7kaip60l,Freehold Open Door Food Pantry,40.2600898,-74.2764811,1.0,0.0,0.5,2.149999677500048e-06,0.9166666666666666,0.2477,0.053763440860215055,20.0
575,ckxexc1lw0547041325oi1idv,WCK Free Farmers Market - Coney Island Sea Park North,40.5762983,-73.9948023,1.0,0.0,0.5,1.4999997750000338e-07,0.0,0.2221,0.10752688172043011,0.0
576,ckxexc1lx05620413n9ys8xff,WCK Free Farmers Market - Bronx Drafthouse,40.8280036,-73.9244318,1.0,0.0,0.5,1.4999997750000338e-07,0.0,0.4719,0.6451612903225806,0.0
577,ckxz77tuw002l04z621vp0hxb,Wharton United Community Church at St. John's,40.8982817,-74.5805163,1.0,0.0,0.5,2.9999995500000676e-07,1.0,0.1776,0.026881720430107527,1.5
578,1500,Bukharian Jewish Center of Briarwood,40.707741,-73.816498,1.0,0.0,0.5,1.4999997750000338e-07,0.0,0.1912,0.27419354838709675,0.0
579,cmg5fos2d07btyagwlyy28b6k,ICPC Masjid Younus,40.9324157,-74.1752075,1.0,0.125,0.5,1.149999827500026e-06,0.8333333333333334,0.1715,0.22043010752688172,10.0
580,cm9kctx2q00kvw72bgegxafy7,CHASI MFP - Ebbits St. & Mill Road,40.564319,-74.1101431,1.0,0.0,0.5,1.149999827500026e-06,0.6666666666666666,0.0649,0.043010752688172046,10.0
581,cli4y0h3702ixvy02ckkuebmy,The Harbour Church,28.0967688,-82.6071976,1.0,0.0,0.5,2.6499996025000595e-06,0.9333333333333332,0.0652,0.005376344086021506,25.0
582,cllnwuniw00z1ob0hmerbn935,Jordan Missionary Baptist Church,42.3691985,-82.9451563,1.0,0.0,0.5,1.4999997750000338e-07,0.6666666666666666,0.3078,0.03225806451612903,0.0
583,cllqkzk0n00bfnm0iroftt22t,Mission City,42.385935,-83.2412159,0.0,0.0,0.5,1.4999997750000338e-07,0.3333333333333333,0.4054,0.06451612903225806,0.0
584,ckxexc1jw02160413ql1f5ede,Upper Manhattan Mutual Aid,40.7127753,-74.0059728,0.0,0.0,0.5,1.4999997750000338e-07,0.0,0.0742,0.4838709677419355,0.0
585,ckyenuvxg000704vtcwu0dmmv,THE FOOD PANTRY AT ST. AGNES,40.881647,-74.235036,1.0,0.0,0.5,6.499999025000147e-07,0.6666666666666666,0.0066,0.026881720430107527,5.0
586,cle64oed500jr2002p1wr6oz7,Calvary Chapel - Gloucester County,39.7555821,-75.0451432,1.0,0.0,0.5,1.149999827500026e-06,0.9814814814814801,0.0332,0.021505376344086023,10.0
587,cmgp95or9013f3wflgfujf6xv,Life Springs Baptist Church,28.0268461,-82.4502576,0.0,0.0,0.5,1.4999997750000338e-07,0.0,0.4778,0.10752688172043011,0.0
588,cmht1w6e10b4641fjefc1nze6,Operation Attack,27.7480452,-82.6526588,1.0,0.0,0.5,6.499999025000147e-07,0.6666666666666666,0.1349,0.14516129032258066,5.0
589,cmfwmobyw0pidwzfmayr3c8fk,William Walker Recreation Center - Ben Hill,33.6889326,-84.5129135,1.0,0.125,0.5,1.4999997750000338e-07,1.0,0.0593,0.04838709677419355,0.0
590,clg5qpny70000mt0fj00u50lv,Emilie Wall Foundation,39.348308,-76.6797601,1.0,0.0,0.5,1.4999997750000338e-07,0.3333333333333333,0.3854,0.0967741935483871,0.0
591,cli55mh0o05vblt0gv4ty8z1g,PASADENA COMMUNITY CHURCH,27.7678831,-82.7356423,1.0,0.0,0.5,5.999999100000135e-07,0.7777777777777767,0.0985,0.016129032258064516,4.5
592,cleg65utd002ml60f5d8o8o2l,Wiley Church Food Pantry,39.8884969,-74.912969,1.0,0.0,0.5,6.1499990775001386e-06,0.8333333333333334,0.0332,0.021505376344086023,60.0
593,cle9qs0ka0000md0fb0niwsya,FoodCommune,33.7423911,-84.2893048,1.0,0.0,0.5,1.149999827500026e-06,0.6666666666666666,0.0741,0.043010752688172046,10.0
594,ckx0m6nmw26853t1ju19rjuug,St Michael's Roman Catholic Church,40.8962437,-74.7086053,1.0,0.0,0.5,5.499999175000124e-07,0.8888888888888901,0.0944,0.026881720430107527,4.0
595,ckyogubsw605683lyn9994p8sn,Victory Kingdom Fellowship Ministry,40.0264387,-75.1365437,1.0,0.0,0.5,1.149999827500026e-06,0.6666666666666666,0.4759,0.43548387096774194,10.0
596,cm57240v800xgzw0vxcqkdv5u,The Hetrick-Martin Institute,40.7298834,-73.992583,1.0,0.0,0.5,1.4999997750000338e-07,0.0,0.0409,0.5268817204301075,0.0
597,cle64r41m02jm2002tamh09wj,St. Mary's Pantry,39.753472,-74.227414,1.0,0.0,0.5,1.149999827500026e-06,0.9166666666666666,0.0838,0.010752688172043012,10.0
598,clhtrlsov0e3in20hvmshsjyj,Christian Center Church Gahanna,40.0102419,-82.8713454,1.0,0.0,0.5,1.149999827500026e-06,0.9333333333333332,0.0626,0.010752688172043012,10.0
599,cm57lnlzt007i060voeb716cx,5TH Ward Community Distribution,39.3583635,-74.4469329,1.0,0.0,0.5,3.149999527500071e-06,0.3333333333333333,0.1982,0.16666666666666666,30.0
600,cldnp4hwi000xmb0ggeswuxex,Fourth Church,42.3307144,-71.0541002,1.0,0.0,0.5,1.149999827500026e-06,0.6666666666666666,0.2262,0.15053763440860216,10.0
601,cm3ypa04n06z212ligpgkti1z,First Redemption Evangelical Church,40.0204999,-75.1492916,1.0,0.0,0.5,6.1499990775001386e-06,1.0,0.4411,0.4946236559139785,60.0
602,ckypotv8g377863yypkhj8qqj6,Our Community Dinner Table,40.8469665,-73.9969223,1.0,0.0,0.5,1.4999997750000338e-07,0.0,0.0785,0.026881720430107527,0.0
603,cldncuvef0000la0f3u3ghk5r,Malden Community Fridge (Linden Square),42.4322664,-71.0256937,0.0,0.0,0.5,1.4999997750000338e-07,0.0,0.0276,0.010752688172043012,0.0
604,974,Worldwide Evangelical Outreach,40.6430239,-73.9475869,1.0,0.0,0.5,1.4999997750000338e-07,0.0,0.1302,0.3763440860215054,0.0
605,423,Manhattan Food Stamp Center,40.8082615,-73.9472409,0.0,0.0,0.5,1.149999827500026e-06,0.6666666666666666,0.303,0.6182795698924731,10.0
606,426,Good Shepherd Lutheran Church,40.6318807260627,-74.0253183306889,1.0,0.0,0.5,1.4999997750000338e-07,0.0,0.1895,0.13978494623655913,0.0
607,cmg5bpfeu046kzqfnh4xoq4fp,Muna - Far Rockway Islamic Center: Masjid,40.5927435,-73.7839824,1.0,0.0,0.5,1.4999997750000338e-07,1.0,0.0792,0.053763440860215055,0.0
608,cmcusr1kk011l220wogdi8xnh,Sanctuary Farm Phila,39.9801788,-75.1711262,1.0,0.125,0.5,1.4999997750000338e-07,0.9,0.353,0.8602150537634409,0.0
609,cm5h84h6j00cg5g0v3mvz3egy,Jubilee Community Outreach Center at Epiphany and Christ Church ,40.7704206,-74.2233305,1.0,0.0,0.5,1.149999827500026e-06,0.7777777777777767,0.121,0.34946236559139787,10.0
610,clhhyw9km0000l20fxv5h4as9,Clair United Methodist Church,39.9236816,-82.9874324,0.0,0.0,0.5,1.4999997750000338e-07,0.0,0.427,0.08064516129032258,0.0
611,866,Park Ave Christian Church ,40.7766859,-73.9613107,0.0,0.0,0.5,1.4999997750000338e-07,0.6666666666666666,0.0675,0.25806451612903225,0.0
612,cmhc3jghb05qjxccl5s7vph2b,Purpose Fulfilled Community Outreach,33.7986764,-84.2141654,1.0,0.0,0.5,3.149999527500071e-06,0.8333333333333334,0.1389,0.03225806451612903,30.0
613,clg4t3kgl002gmk0fvqpsmkzp,Patapsco United Methodist Church,39.2690125,-76.4989965,1.0,0.0,0.5,6.499999025000147e-07,0.7333333333333334,0.1088,0.026881720430107527,5.0
614,cmercyk8c00pbyqebmvem2lhn,Chatham United Methodist Church,40.7444235,-74.3906855,1.0,0.125,0.5,1.4999997750000338e-07,0.0,0.022,0.0,0.0
615,ckz2duqeg2134183jy38x7nstmb,Mt. Paran Community Development Corp,40.6843818,-73.9127922,1.0,0.0,0.5,1.149999827500026e-06,0.0,0.355,0.543010752688172,10.0
616,ckyntsntf178053lyns660xpz8,Union Temple Baptist Church,39.9897405,-75.1323935,1.0,0.0,0.5,1.4999997750000338e-07,0.0,0.2577,0.7258064516129032,0.0
617,958,Bushwick United Seniors,40.6367488,-73.9454518,1.0,0.0,0.5,1.3999997900000316e-06,0.0,0.189,0.3817204301075269,12.5
